     3.03           OBSERVATION DATA    M: Mixed            RINEX VERSION / TYPE
RTKCONV 2.4.3 b33                       20191125 135306 UTC PGM / RUN BY / DATE 
log: C:\Users\henri\Nextcloud\M2\Projet S1\data_blox\very   COMMENT             
format: u-blox                                              COMMENT             
                                                            MARKER NAME         
                                                            MARKER NUMBER       
                                                            MARKER TYPE         
                                                            OBSERVER / AGENCY   
                                                            REC # / TYPE / VERS 
                                                            ANT # / TYPE        
  4063415.4075   247172.0817  4893642.5816                  APPROX POSITION XYZ 
        0.0000        0.0000        0.0000                  ANTENNA: DELTA H/E/N
G    4 C1C L1C D1C S1C                                      SYS / # / OBS TYPES 
R    4 C1C L1C D1C S1C                                      SYS / # / OBS TYPES 
E    4 C1C L1C D1C S1C                                      SYS / # / OBS TYPES 
J    4 C1C L1C D1C S1C                                      SYS / # / OBS TYPES 
S    4 C1C L1C D1C S1C                                      SYS / # / OBS TYPES 
C    4 C2I L2I D2I S2I                                      SYS / # / OBS TYPES 
  2019    11    25     9     8   23.9930000     GPS         TIME OF FIRST OBS   
  2019    11    25     9    51   21.9940000     GPS         TIME OF LAST OBS    
G                                                           SYS / PHASE SHIFT   
R                                                           SYS / PHASE SHIFT   
E                                                           SYS / PHASE SHIFT   
J                                                           SYS / PHASE SHIFT   
S                                                           SYS / PHASE SHIFT   
C                                                           SYS / PHASE SHIFT   
  0                                                         GLONASS SLOT / FRQ #
 C1C    0.000 C1P    0.000 C2C    0.000 C2P    0.000        GLONASS COD/PHS/BIS 
                                                            END OF HEADER       
> 2019 11 25  9  8 23.9930000  0 19                     
R17  17698303.411    94707167.3413       1194.903          52.000  
R 1  17404975.392    93039525.949       -2268.313          50.000  
R 8  20429278.622   109397838.8012      -4342.763          45.000  
R23  20597515.005   110182792.797       -4922.619          43.000  
R 2  18453748.937                2       2155.494          43.000  
G17  19672248.043                3      -1233.984          34.000  
R18  21412429.066                3       3624.701          26.000  
R 9  21162459.700   113006294.1603      -1149.542          48.000  
G22  19324954.939   101553321.372       -2383.661          49.000  
G 3  18116251.687    95201541.377       -1254.583          52.000  
G 1  20018197.388   105196332.071       -3483.589          49.000  
G11  21068151.896   110713882.584       -4340.804          44.000  
G23  19275859.873   101295326.9531       1483.065          49.000  
G 4  20206241.362   106184515.5022       2772.097          45.000  
G19  19622308.914   103115928.3502       -130.733          46.000  
G14  22222120.578   116778030.7242      -3777.471          37.000  
G 6  21230073.928                3       2618.066          37.000  
G31  21249787.251   111668390.5102       -776.638          41.000  
G 9  20892959.759   109793244.0833       3054.666          47.000  
> 2019 11 25  9  8 24.9930000  0 17                     
R17  17698079.918    94705972.1832       1194.639          52.000  
R 1  17405399.804    93041795.165       -2269.604          50.000  
R 8  20430089.656                3      -4344.044          49.000  
R23  20598436.005   110187718.149       -4926.202          46.000  
R 2  18453343.612    98470502.4282       2150.680          52.000  
G17  19672483.411   103379597.5782      -1241.053          49.000  
R 9  21162678.150   113007443.6152      -1150.113          43.000  
G22  19325408.523   101555705.402       -2384.688          49.000  
G 3  18116490.515    95202796.557       -1255.704          52.000  
G 1  20018860.457   105199815.524       -3483.208          45.000  
G11  21068977.784   110718223.368       -4339.971          41.000  
G23  19275577.616   101293844.568        1482.115          48.000  
G 4  20205713.772   106181743.8752       2770.874          45.000  
G19  19622333.161                3       -130.371          42.000  
G 6  21229577.578                3       2606.982          35.000  
G31  21249933.855   111669155.2693       -778.658          46.000  
G 9  20892378.126   109790189.2232       3053.915          43.000  
> 2019 11 25  9  8 25.9930000  0 19                     
R17  17697856.616    94704777.6172       1194.085          52.000  
R 1  17405824.594    93044065.314       -2270.781          50.000  
R 8  20430902.313                3      -4306.982          33.000  
R23  20599356.757   110192644.550       -4927.338          47.000  
R 2  18452941.733                3       2150.882          51.000  
G17  19672720.813   103380839.4692      -1244.427          45.000  
R18  21411083.244                3       3589.818          31.000  
R 9  21162892.731   113008593.7992      -1150.479          48.000  
G22  19325862.660   101558090.545       -2386.826          45.000  
G14  22223563.130                3      -3769.873          29.000  
G 3  18116729.530    95204052.545       -1256.397          53.000  
G 1  20019523.535                3      -3487.939          43.000  
G11  21069804.179   110722565.228       -4342.161          44.000  
G23  19275295.747   101292363.124        1481.279          49.000  
G 4  20205186.505   106178972.8992       2770.064          45.000  
G19  19622357.822   103116185.7042       -129.793          44.000  
G 6  21229078.166                3       2621.191          37.000  
G31  21250085.929                3       -774.414          34.000  
G 9  20891796.043   109787134.7602       3055.942          45.000  
> 2019 11 25  9  8 26.9930000  0 19                     
R17  17697633.515    94703583.7632       1193.318          52.000  
R 1  17406249.599    93046335.725       -2270.763          50.000  
R 8  20431713.673                3      -4359.521          38.000  
R23  20600277.767   110197567.7341      -4925.885          45.000  
R 2  18452538.380    98466205.7702       2149.186          51.000  
G17  19672957.604   103382089.8523      -1242.713          50.000  
R18  21410403.689                3       3601.270          27.000  
R 9  21163107.020   113009744.6522      -1152.148          46.000  
G22  19326316.366                3      -2386.084          44.000  
G14  22224284.147                3      -3780.954          28.000  
G 3  18116968.734    95205308.783       -1256.667          52.000  
G 1  20020186.752   105206791.0822      -3485.036          49.000  
G11  21070630.403   110726907.248       -4342.092          45.000  
G23  19275013.825   101290882.205        1480.406          49.000  
G 4  20204659.155   106176202.3982       2770.863          45.000  
G19  19622382.549   103116315.9382       -132.651          44.000  
G 6  21228581.057                3       2620.117          37.000  
G31  21250235.425                2       -778.790          30.000  
G 9  20891216.177   109784080.8952       3053.883          45.000  
> 2019 11 25  9  8 27.9930000  0 19                     
R17  17697410.719    94702390.5932       1192.564          52.000  
R 1  17406674.699    93048606.449       -2270.819          49.000  
R 8  20432531.439                3      -4354.802          34.000  
R23  20601198.606   110202494.081       -4926.388          48.000  
R 2  18452135.507    98464056.2982       2149.218          52.000  
G17  19673194.325   103383332.8632      -1242.364          49.000  
R18  21409734.177                3       3604.050          28.000  
R 9  21163322.936                3      -1148.340          39.000  
G22  19326770.163   101562862.3732      -2384.745          48.000  
G14  22225003.393                3      -3778.583          31.000  
G 3  18117207.666    95206565.102       -1256.418          52.000  
G 1  20020849.616   105210275.6952      -3484.281          49.000  
G11  21071456.557   110731248.921       -4340.130          39.000  
G23  19274732.183   101289401.250        1480.771          49.000  
G 4  20204131.783   106173431.8632       2770.515          45.000  
G19  19622409.828   103116446.7642       -130.990          46.000  
G 6  21228080.755                3       2619.482          37.000  
G31  21250383.996                3       -787.646          34.000  
G 9  20890634.343   109781026.8652       3054.023          47.000  
> 2019 11 25  9  8 28.9930000  0 19                     
R17  17697187.858    94701197.9722       1191.979          52.000  
R 1  17407099.005    93050877.550       -2271.318          50.000  
R 8  20433341.513                2      -4347.119          34.000  
R23  20602119.598   110207420.7312      -4926.918          49.000  
R 2  18451733.436    98461907.2002       2148.569          53.000  
G17  19673430.605   103384576.3252      -1244.010          50.000  
R18  21409070.204                3       3623.896          28.000  
R 9  21163539.118                3      -1160.657          32.000  
G22  19327224.161   101565247.4932      -2385.050          48.000  
G14  22225717.683                3      -3795.433          25.000  
G 3  18117447.009    95207821.700       -1256.808          52.000  
G 1  20021512.855   105213760.5412      -3484.137          40.000  
G11  21072282.620   110735590.826       -4341.824          45.000  
G23  19274450.449   101287920.697        1480.474          49.000  
G 4  20203604.425   106170661.6452       2769.791          45.000  
G19  19622433.002   103116578.2742       -131.253          43.000  
G 6  21227585.736   111551715.3992       2618.774          40.000  
G31  21250537.563                3       -784.602          29.000  
G 9  20890053.002   109777973.0872       3053.240          46.000  
> 2019 11 25  9  8 29.9930000  0 17                     
R17  17696964.901    94700006.2542       1191.300          52.000  
R 1  17407524.036    93053149.372       -2271.976          49.000  
R 8  20434148.991                3      -4341.357          31.000  
R23  20603040.442   110212347.8592      -4926.878          47.000  
R 2  18451331.043    98459758.7982       2147.474          51.000  
G17  19673667.099   103385820.6032      -1244.671          50.000  
R 9  21163754.401                3      -1154.384          35.000  
G22  19327678.059   101567633.1942      -2387.250          44.000  
G 3  18117686.204    95209078.960       -1257.583          52.000  
G 1  20022174.877   105217238.1443      -3486.047          47.000  
G11  21073109.154   110739933.221       -4342.737          45.000  
G23  19274169.025   101286441.025        1479.028          48.000  
G 4  20203077.799   106167892.0862       2769.080          45.000  
G19  19622459.758   103116710.4752       -132.447          48.000  
G 6  21227084.357   111549080.6392       2618.017          40.000  
G31  21250678.587                3       -779.394          38.000  
G 9  20889472.058   109774919.8292       3052.268          45.000  
> 2019 11 25  9  8 30.9930000  0 18                     
R17  17696742.415    94698815.165        1190.786          52.000  
R 1  17407949.102    93055421.444       -2272.121          50.000  
R 8  20434962.760                3      -4442.480          31.000  
R23  20603961.586   110217275.5052      -4927.591          47.000  
R 2  18450928.205    98457610.9912       2147.728          53.000  
G17  19673903.964   103387065.6042      -1245.481          50.000  
R18  21407725.094                3       3593.261          36.000  
R 9  21163975.945                3      -1143.934          29.000  
G22  19328131.856   101570017.7113      -2385.431          48.000  
G 3  18117925.389    95210336.431       -1257.599          51.000  
G 1  20022838.714   105220723.9402      -3485.279          48.000  
G11  21073935.618   110744276.009       -4342.732          45.000  
G23  19273887.745   101284961.921        1478.611          49.000  
G 4  20202550.920   106165123.1512       2768.878          45.000  
G19  19622484.459   103116843.4052       -132.856          48.000  
G 6  21226588.064                2       2607.759          31.000  
G31  21250830.591                3       -792.298          30.000  
G 9  20888891.306   109771867.211        3051.672          44.000  
> 2019 11 25  9  8 31.9930000  0 17                     
R17  17696519.925    94697624.194        1190.609          52.000  
R 1  17408374.058    93057693.798       -2272.545          49.000  
R 8  20435778.178                3      -4344.845          35.000  
R23  20604882.862   110222203.6942      -4929.017          48.000  
R 2  18450525.851    98455463.1372       2148.132          51.000  
G17  19674140.667   103388310.6342      -1246.890          47.000  
R18  21407049.094                2       3586.547          36.000  
R 9  21164191.904                3      -1158.868          29.000  
G22  19328586.024   101572403.6902      -2386.803          48.000  
G 3  18118164.571    95211594.104       -1258.151          51.000  
G 1  20023502.424   105224210.3652      -3487.017          48.000  
G11  21074762.113   110748619.314       -4343.925          44.000  
G23  19273606.103   101283483.188        1478.157          49.000  
G 4  20202024.081   106162354.4722       2767.567          45.000  
G19  19622509.731   103116976.4062       -133.303          46.000  
G31  21250974.713                3       -783.301          39.000  
G 9  20888310.563   109768814.625        3051.619          46.000  
> 2019 11 25  9  8 32.9930000  0 17                     
R17  17696297.142    94696433.325        1190.788          52.000  
R 1  17408799.390    93059966.365       -2272.340          49.000  
R 8  20436584.234                3      -4345.801          40.000  
R23  20605804.543   110227132.1362      -4927.925          48.000  
R 2  18450123.296    98453315.2872       2147.025          52.000  
G17  19674377.750   103389555.4772      -1245.002          50.000  
R18  21406380.698                3       3612.310          28.000  
R 9  21164405.813                3      -1129.883          32.000  
G22  19329039.887   101574789.8412      -2385.773          48.000  
G 3  18118404.001    95212851.897       -1257.586          52.000  
G 1  20024165.982   105227697.1962      -3486.852          48.000  
G11  21075588.629   110752962.916       -4343.478          45.000  
G23  19273324.666   101282004.758        1478.406          49.000  
G 4  20201496.892   106159585.9572       2768.514          45.000  
G19  19622535.012   103117109.3322       -132.229          47.000  
G 6  21225590.238                3       2619.508          36.000  
G 9  20887729.815   109765762.129        3052.198          44.000  
> 2019 11 25  9  8 33.9930000  0 19                     
R17  17696075.189    94695242.930        1189.765          52.000  
R 1  17409224.608    93062239.010       -2273.452          50.000  
R 8  20437394.208                3      -4341.553          41.000  
R23  20606725.544   110232060.8442      -4929.355          48.000  
R 2  18449720.846    98451167.9732       2145.781          50.000  
G17  19674614.471   103390801.0422      -1245.435          44.000  
R18  21405709.074                3       3592.919          33.000  
R 9  21164621.010                3      -1136.230          35.000  
G22  19329494.195   101577175.8372      -2386.075          48.000  
G14  22229315.041                3      -3775.961          27.000  
G 3  18118643.422    95214109.768       -1258.255          52.000  
G 1  20024829.535   105231184.1442      -3487.305          48.000  
G11  21076415.102   110757306.694       -4344.120          45.000  
G23  19273043.399   101280526.817        1477.297          49.000  
G 4  20200970.402   106156817.8922       2767.837          43.000  
G19  19622560.481   103117242.9582       -133.571          42.000  
G 6  21225090.146                3       2619.183          39.000  
G31  21251274.612                3       -784.277          36.000  
G 9  20887148.950   109762710.021        3051.074          45.000  
> 2019 11 25  9  8 34.9930000  0 18                     
R17  17695853.056    94694053.670        1188.678          52.000  
R 1  17409649.852    93064512.279       -2273.935          50.000  
R 8  20438204.504                3      -4344.336          35.000  
R23  20607647.295   110236990.464       -4930.500          48.000  
R 2  18449318.453    98449021.3361       2145.314          51.000  
G17  19674852.026   103392047.8272      -1247.273          47.000  
R18  21405034.885                3       3577.118          29.000  
R 9  21164837.466                3      -1150.195          35.000  
G22  19329948.136   101579562.2202      -2386.680          48.000  
G 3  18118882.743    95215368.261       -1258.944          52.000  
G 1  20025492.814   105234671.8042      -3487.969          48.000  
G11  21077242.055   110761651.296       -4344.940          44.000  
G23  19272762.154   101279049.907        1476.440          48.000  
G 4  20200443.846   106154050.9192       2767.227          46.000  
G19  19622586.159   103117377.5342       -135.030          47.000  
G 6  21224593.308                3       2610.840          35.000  
G31  21251426.167                3       -786.475          36.000  
G 9  20886568.512   109759659.122        3049.838          46.000  
> 2019 11 25  9  8 35.9930000  0 17                     
R17  17695630.622    94692865.272        1187.871          52.000  
R 1  17410075.136    93066785.892       -2274.074          50.000  
R 8  20439014.103                3      -4346.973          40.000  
R23  20608568.828   110241920.484       -4929.615          48.000  
R 2  18448916.566    98446876.154        2144.804          53.000  
G17  19675089.615   103393295.5372      -1248.083          50.000  
R 9  21165057.282                3      -1145.068          30.000  
G22  19330402.291   101581948.6352      -2386.587          48.000  
G 3  18119122.361    95216627.111       -1259.186          52.000  
G 1  20026156.781   105238159.7262      -3488.236          49.000  
G11  21078068.781   110765996.255       -4344.438          44.000  
G23  19272481.602   101277573.733        1475.928          49.000  
G 4  20199917.399   106151284.7852       2765.954          45.000  
G19  19622612.059   103117513.2412       -136.383          48.000  
G 6  21224091.252                2       2622.681          39.000  
G31  21251573.146                2       -785.989          39.000  
G 9  20885987.786   109756608.770        3049.977          47.000  
> 2019 11 25  9  8 36.9930000  0 19                     
R17  17695408.472    94691677.515        1187.702          52.000  
R 1  17410500.633    93069060.080       -2274.010          50.000  
R 8  20439826.703                2      -4343.978          40.000  
R23  20609490.360   110246851.140       -4930.617          47.000  
R 2  18448514.500    98444731.589        2144.619          52.000  
G17  19675327.103   103394543.890       -1248.414          50.000  
R18  21403687.052                3       3595.263          36.000  
R 9  21165269.591   113021288.5702      -1156.766          39.000  
G22  19330856.350   101584335.4992      -2386.315          48.000  
G14  22231468.105                3      -3771.699          25.000  
G 3  18119362.123    95217886.474       -1259.170          52.000  
G 1  20026820.871   105241648.315       -3488.472          47.000  
G11  21078895.515   110770341.857       -4345.744          43.000  
G23  19272200.693   101276098.339        1475.331          49.000  
G 4  20199391.327   106148519.2522       2765.683          45.000  
G19  19622638.400   103117649.529        -136.400          48.000  
G 6  21223595.317   111530732.4792       2619.207          45.000  
G31  21251724.169                3       -764.209          35.000  
G 9  20885407.636   109753559.013        3050.062          47.000  
> 2019 11 25  9  8 37.9930000  0 19                     
R17  17695186.558    94690490.276        1187.867          52.000  
R 1  17410926.493    93071334.854       -2274.844          50.000  
R 8  20440636.908                3      -4344.434          38.000  
R23  20610412.325   110251782.843       -4932.169          48.000  
R 2  18448112.512    98442587.685        2143.593          51.000  
G17  19675564.758   103395792.827       -1248.024          49.000  
R18  21403009.364                2       3591.808          38.000  
R 9  21165482.339                3      -1149.683          29.000  
G22  19331310.614   101586722.9992      -2388.126          48.000  
G14  22232187.264                3      -3789.710          25.000  
G 3  18119601.876    95219146.452       -1260.227          52.000  
G 1  20027484.979   105245137.947       -3490.052          48.000  
G11  21079722.804   110774688.471       -4347.577          44.000  
G23  19271920.229   101274623.993        1473.771          49.000  
G 4  20198865.377   106145754.6602       2764.159          45.000  
G19  19622664.301   103117786.263        -136.351          48.000  
G 6  21223096.009   111528112.9012       2619.723          43.000  
G31  21251872.845                3       -783.229          34.000  
G 9  20884827.543   109750510.138        3049.093          45.000  
> 2019 11 25  9  8 38.9930000  0 18                     
R17  17694964.661    94689301.776        1189.006          52.000  
R 1  17411351.837    93073608.756       -2272.816          50.000  
R 8  20441444.312                3      -4339.112          36.000  
R23  20611334.936   110256719.574       -4941.481          46.000  
R 2  18447710.790    98440445.118        2140.114          53.000  
G17  19675802.408   103397042.198       -1250.659          49.000  
R18  21402334.678                3       3591.211          37.000  
R 9  21165699.045                3      -1148.877          40.000  
G22  19331764.983   101589110.8062      -2387.883          48.000  
G 3  18119841.694    95220406.379       -1259.703          52.000  
G 1  20028149.531   105248631.009       -3496.278          49.000  
G11  21080550.882   110779039.706       -4355.480          44.000  
G23  19271640.079   101273152.731        1468.088          48.000  
G 4  20198339.930   106142993.9392       2756.355          44.000  
G19  19622690.249   103117921.904        -135.456          46.000  
G 6  21222598.953                3       2626.904          35.000  
G31  21252020.849                2       -784.856          43.000  
G 9  20884248.013   109747465.004        3041.409          43.000  
> 2019 11 25  9  8 39.9930000  0 17                     
R17  17694742.498    94688111.483        1190.970          52.000  
R 1  17411777.069    93075880.937       -2271.431          50.000  
R 8  20442256.127                3      -4303.857          30.000  
R23  20612259.029   110261663.965       -4946.347          47.000  
R 2  18447309.968    98438305.455        2139.572          52.000  
G17  19676040.455   103398292.890       -1249.790          48.000  
R 9  21165917.962                3      -1140.527          39.000  
G22  19332219.544   101591498.6142      -2387.296          48.000  
G 3  18120081.285    95221666.090       -1259.446          52.000  
G 1  20028815.283   105252129.072       -3500.087          41.000  
G11  21081380.134   110783397.947       -4358.801          44.000  
G23  19271360.819   101271686.434        1465.449          49.000  
G 4  20197815.603   106140239.5752       2753.146          46.000  
G19  19622715.853   103118056.413        -134.513          46.000  
G 6  21222099.458                2       2630.185          36.000  
G31  21252173.359                3       -780.566          35.000  
G 9  20883669.760   109744426.252        3038.091          44.000  
> 2019 11 25  9  8 40.9930000  0 19                     
R17  17694519.689    94686920.642        1191.136          52.000  
R 1  17412202.156    93078152.621       -2271.406          49.000  
R 8  20443066.672                3      -4323.438          38.000  
R23  20613183.891   110266610.900       -4947.530          49.000  
R 2  18446909.381    98436166.678        2139.088          47.000  
G17  19676278.672   103399543.995       -1251.014          48.000  
R18  21400993.389                3       3621.221          33.000  
R 9  21166136.094                3      -1131.738          37.000  
G22  19332673.965   101593886.4942      -2387.568          49.000  
G14  22234346.178                3      -3766.094          24.000  
G 3  18120320.794    95222925.704       -1259.452          52.000  
G 1  20029481.427   105255628.663       -3500.016          49.000  
G11  21082210.132   110787758.698       -4360.863          45.000  
G23  19271082.095   101270221.798        1464.293          49.000  
G 4  20197291.137   106137487.2282       2752.205          33.000  
G19  19622741.234   103118190.451        -135.086          45.000  
G 6  21221597.066                3       2624.756          38.000  
G31  21252318.401                3       -784.228          44.000  
G 9  20883091.931                3       3036.857          34.000  
> 2019 11 25  9  8 41.9930000  0 16                     
R17  17694297.081    94685729.921        1190.309          51.000  
R 1  17412627.064    93080424.367       -2271.950          50.000  
R 8  20443874.839                3      -4340.723          37.000  
R23  20614109.045   110271559.018       -4949.478          48.000  
R 2  18446509.151                        2138.261          41.000  
G17  19676516.951   103400795.728       -1255.502          42.000  
R 9  21166349.907                3      -1140.576          33.000  
G22  19333128.434   101596274.5002      -2388.020          48.000  
G 3  18120560.495    95224185.435       -1260.163          52.000  
G 1  20030147.415   105259129.168       -3501.236          46.000  
G11  21083039.968   110792120.410       -4362.369          46.000  
G23  19270803.563   101268757.975        1463.655          47.000  
G19  19622766.755   103118324.577        -134.250          45.000  
G 6  21221099.451                3       2637.402          32.000  
G31  21252468.486                3       -779.883          39.000  
G 9  20882514.307                3       3034.630          34.000  
> 2019 11 25  9  8 42.9930000  0 17                     
R17  17694074.486                3       1202.832          42.000  
R 1  17413051.947    93082696.379       -2271.426          49.000  
R 8  20444686.069                3      -4339.551          35.000  
R23  20615034.382   110276508.791       -4950.495          48.000  
R 2  18446107.508                3       2131.275          44.000  
G17  19676752.284                3      -1253.418          45.000  
R 9  21166560.566                3      -1152.686          37.000  
G22  19333582.759   101598662.999       -2390.291          45.000  
G14  22235781.062                3      -3770.007          27.000  
G 3  18120800.457    95225445.746       -1259.976          52.000  
G 1  20030813.970   105262631.108       -3501.991          49.000  
G11  21083870.402   110796483.790       -4364.268          45.000  
G23  19270525.381   101267295.954        1460.664          45.000  
G19  19622792.520                3       -136.055          44.000  
G 6  21220598.364                2       2630.540          39.000  
G31  21252619.745                3       -770.996          37.000  
G 9  20881938.856                3       3025.927          36.000  
> 2019 11 25  9  8 43.9930000  0 17                     
R17  17693851.555                2       1192.298          46.000  
R 1  17413476.759    93084967.246       -2271.240          50.000  
R 8  20445495.934                3      -4336.475          35.000  
R23  20615960.269   110281460.213       -4952.867          49.000  
R 2  18445711.222                2       2134.022          42.000  
G17  19676997.578                3      -1259.814          40.000  
R18  21398968.387                3       3607.996          40.000  
R 9  21166773.625                2      -1134.897          38.000  
G22  19334037.363   101601050.441       -2387.791          48.000  
G 3  18121040.262    95226705.245       -1259.789          52.000  
G 1  20031480.293   105266133.673       -3503.453          48.000  
G11  21084700.906   110800848.481       -4365.546          46.000  
G23  19270247.455   101265834.656        1459.344          49.000  
G19  19622817.692                3       -129.883          39.000  
G 6  21220098.943                3       2636.684          34.000  
G31  21252776.910                3       -850.444          24.000  
G 9  20881360.032                3       3025.732          39.000  
> 2019 11 25  9  8 44.9930000  0 17                     
R17  17693628.921                3       1192.474          49.000  
R 1  17413901.222    93087237.427       -2269.558          50.000  
R 8  20446305.733                3      -4327.295          40.000  
R23  20616886.670   110286415.451       -4959.073          48.000  
R 2  18445315.866                3       2121.094          39.000  
G17  19677229.395                2      -1257.257          38.000  
R18  21398291.148                3       3614.241          38.000  
R 9  21166990.618                3      -1124.365          38.000  
G22  19334491.649   101603438.033       -2388.407          49.000  
G 3  18121280.181    95227964.777       -1259.898          52.000  
G 1  20032147.249   105269638.706       -3508.456          49.000  
G11  21085532.130   110805216.801       -4372.417          46.000  
G23  19269969.975   101264376.067        1455.534          47.000  
G19  19622844.173                3       -134.287          33.000  
G 6  21219594.845                3       2635.449          39.000  
G31  21252917.685                3       -777.148          32.000  
G 9  20880781.994                2       3026.891          42.000  
> 2019 11 25  9  8 45.9930000  0 20                     
R17  17693405.820                3       1196.436          49.000  
R 1  17414325.590    93089506.357       -2268.490          49.000  
R 8  20447114.136                3      -4329.932          33.000  
R23  20617814.734   110291379.631       -4967.628          47.000  
R 2  18444909.372                3       2131.885          43.000  
G17  19677469.903                2      -1253.014          49.000  
R18  21397611.750                2       3620.300          39.000  
R 9  21167203.053                3      -1138.623          34.000  
G22  19334946.376   101605827.140       -2390.416          49.000  
G14  22237935.339                3      -3768.697          26.000  
G 3  18121519.995    95229224.447       -1259.937          52.000  
G12  22877669.797                3       -880.379          28.000  
G 1  20032815.789   105273150.462       -3514.910          50.000  
G11  21086365.077   110809593.520       -4380.445          46.000  
G23  19269693.415   101262922.477        1451.243          47.000  
G 4  20194684.702                3       2739.767          40.000  
G19  19622867.234                2       -128.272          42.000  
G 6  21219093.540                3       2640.723          39.000  
G31  21253074.048                2       -778.939          36.000  
G 9  20880209.347                3       3024.945          44.000  
> 2019 11 25  9  8 46.9930000  0 19                     
R17  17693181.877                3       1205.713          43.000  
R 1  17414750.062    93091775.209       -2270.222          50.000  
R 8  20447923.796                3      -4330.225          40.000  
R23  20618744.058   110296350.375       -4973.018          45.000  
R 2  18444507.480                3       2137.695          47.000  
G17  19677710.040                3      -1251.123          49.000  
R18  21396931.419                3       3641.211          36.000  
R 9  21167415.208                3      -1130.371          34.000  
G22  19335401.735   101608219.069       -2394.485          48.000  
G 3  18121759.394    95230484.646       -1261.234          52.000  
G12  22877842.559                3       -888.436          28.000  
G 1  20033485.397   105276668.442       -3521.421          48.000  
G11  21087199.119   110813976.553       -4385.975          46.000  
G23  19269417.209   101261471.814        1450.238          48.000  
G 4  20194160.402   106121029.1672       2736.583          48.000  
G19  19622891.603                3       -122.326          44.000  
G 6  21218591.755                2       2641.086          33.000  
G31  21253213.903                3       -783.203          37.000  
G 9  20879631.784   109723205.1432       3022.871          48.000  
> 2019 11 25  9  8 47.9930000  0 19                     
R17  17692956.944    94678559.2852       1207.357          50.000  
R 1  17415175.027    93094046.637       -2272.636          50.000  
R 8  20448731.863                3      -4338.721          43.000  
R23  20619674.547   110301327.432       -4980.384          44.000  
R 2  18444106.374                2       2143.421          49.000  
G17  19677946.333                3      -1245.264          40.000  
R18  21396258.272                3       3622.949          32.000  
R 9  21167626.605                3      -1133.881          41.000  
G22  19335857.949   101610617.890       -2402.668          47.000  
G 3  18121999.627    95231747.136       -1263.990          52.000  
G12  22878015.198                3       -904.639          28.000  
G 1  20034156.432   105280195.100       -3531.948          49.000  
G11  21088034.356   110818366.064       -4393.508          44.000  
G23  19269141.430   101260023.050        1447.695          48.000  
G 4  20193636.791   106118292.9472       2736.318          46.000  
G19  19622914.236                3       -107.227          41.000  
G 6  21218085.895                3       2657.739          35.000  
G31  21253358.931                2       -794.929          42.000  
G 9  20879057.031   109720182.0932       3023.311          48.000  
> 2019 11 25  9  8 48.9930000  0 18                     
R17  17692730.409    94677347.1822       1214.545          49.000  
R 1  17415600.551    93096320.551       -2274.082          50.000  
R 8  20449542.840   109506334.9912      -4345.843          47.000  
R23  20620607.052   110306314.602       -4993.919          46.000  
R 2  18443703.283                2       2152.911          46.000  
G17  19678179.106                3      -1233.643          42.000  
R 9  21167840.884                3      -1120.274          39.000  
G22  19336315.895   101613024.843       -2410.616          48.000  
G 3  18122240.453    95233012.215       -1265.962          52.000  
G12  22878187.480                3       -885.384          28.000  
G 1  20034829.976   105283733.654       -3544.742          48.000  
G11  21088871.752   110822765.798       -4406.148          45.000  
G23  19268866.799   101258578.026        1442.660          50.000  
G 4  20193115.710   106115558.7952       2731.102          45.000  
G19  19622934.443                2       -103.055          43.000  
G 6  21217575.153                2       2675.967          40.000  
G31  21253513.191   111687955.1932       -805.068          38.000  
G 9  20878484.227   109717159.3912       3021.066          38.000  
> 2019 11 25  9  8 49.9930000  0 17                     
R17  17692502.924                3       1222.754          45.000  
R 1  17416026.000    93098594.856       -2273.982          48.000  
R 8  20450354.445   109510682.1372      -4349.040          47.000  
R23  20621544.120                3      -5017.872          36.000  
R 2  18443300.575    98416906.6092       2155.584          53.000  
G17  19678414.191   103410764.2952      -1222.697          47.000  
R 9  21168049.026                3      -1128.811          31.000  
G22  19336775.180   101615438.477       -2416.971          49.000  
G14  22240799.221                2      -3776.775          39.000  
G 3  18122481.367    95234278.829       -1266.675          51.000  
G 1  20035505.557   105287285.270       -3558.113          47.000  
G11  21089711.836   110827178.605       -4418.796          39.000  
G23  19268593.101   101257138.822        1436.797          49.000  
G19  19622954.637                3        -99.707          37.000  
G 6  21217063.390                3       2692.236          37.000  
G31  21253665.109   111688763.9203       -808.553          46.000  
G 9  20877909.871                3       3017.041          34.000  
> 2019 11 25  9  8 50.9930000  0 17                     
R17  17692273.755    94674903.6652       1233.030          50.000  
R 1  17416451.083    93100868.709       -2272.746          48.000  
R 8  20451166.430   109515032.1472      -4350.654          48.000  
R23  20622480.115                3      -4981.104          33.000  
R 2  18442895.900    98414751.1563       2160.419          52.000  
G17  19678645.406   103411983.1192      -1215.343          51.000  
R18  21394202.405                2       3673.047          27.000  
R 9  21168260.405                2      -1118.589          37.000  
G22  19337235.491   101617858.523       -2423.098          47.000  
G14  22241515.919   116879965.5812      -3776.946          39.000  
G 3  18122722.581    95235546.406       -1268.035          51.000  
G 1  20036184.388   105290850.319       -3571.647          48.000  
G23  19268320.258   101255705.310        1430.101          49.000  
G 4  20192078.347   106110087.3443       2718.120          42.000  
G19  19622969.741                2        -77.366          45.000  
G31  21253821.458   111689575.9582       -814.189          48.000  
G 9  20877335.541                2       3015.129          35.000  
> 2019 11 25  9  8 51.9930000  0 17                     
R17  17692042.509    94673665.4482       1241.574          53.000  
R 1  17416876.053    93103140.735       -2271.330          49.000  
R 8  20451978.437   109519381.9052      -4349.182          37.000  
R23  20623414.099                3      -5054.140          29.000  
R 2  18442490.793    98412590.1402       2161.309          53.000  
G17  19678875.684   103413195.8972      -1210.646          51.000  
R18  21393515.831                3       3667.135          27.000  
R 9  21168479.449                3      -1089.990          32.000  
G22  19337696.709   101620283.501       -2427.312          48.000  
G14  22242235.897   116883741.0012      -3774.418          36.000  
G 3  18122964.074    95236814.178       -1268.137          51.000  
G 1  20036865.662                3      -3588.034          41.000  
G23  19268048.924   101254279.491        1421.721          49.000  
G 4  20191562.946   106107378.5263       2710.637          46.000  
G19  19622982.959   103119470.5782        -68.705          45.000  
G31  21253975.592   111690390.4432       -815.300          42.000  
G 9  20876761.965   109708123.6943       3004.814          48.000  
> 2019 11 25  9  8 52.9930000  0 15                     
R17  17691810.028    94672421.5183       1242.361          45.000  
R 1  17417300.704    93105411.261       -2271.030          49.000  
R 8  20452790.055                3      -4347.314          38.000  
R23  20624361.445                3      -5040.342          33.000  
R 2  18442085.399    98410428.3332       2161.434          53.000  
G17  19679106.458   103414405.4742      -1208.070          48.000  
R 9  21168691.460                3      -1149.038          28.000  
G22  19338158.699   101622711.622       -2429.863          48.000  
G 3  18123205.241    95238082.230       -1268.923          51.000  
G 1  20037548.768   105298029.0222      -3592.954          47.000  
G23  19267778.956   101252859.766        1417.450          50.000  
G 4  20191047.815   106104670.1462       2707.158          39.000  
G19  19622996.012                3        -73.486          32.000  
G31  21254133.926   111691205.8742       -815.146          39.000  
G 9  20876192.216   109705122.5172       2999.564          42.000  
> 2019 11 25  9  8 53.9930000  0 16                     
R17  17691577.159                3       1248.193          41.000  
R 1  17417725.643    93107682.445       -2271.011          46.000  
R 8  20453601.359                3      -4303.819          27.000  
R23  20625306.976                3      -5065.046          33.000  
R 2  18441679.760    98408265.6712       2163.461          52.000  
G17  19679335.693   103415613.1622      -1205.996          48.000  
R18  21392128.386                3       3742.711          27.000  
G22  19338621.448   101625142.812       -2431.769          48.000  
G 3  18123446.420    95239351.432       -1269.357          50.000  
G 6  21214998.986                3       2743.848          34.000  
G 1  20038232.537   105301624.1502      -3597.620          42.000  
G23  19267509.241   101251443.337        1415.898          50.000  
G 4  20190534.993   106101977.2323       2703.641          38.000  
G19  19623008.332                3        -58.301          41.000  
G31  21254291.842                3       -823.555          35.000  
G 9  20875625.249                3       2989.307          39.000  
> 2019 11 25  9  8 54.9930000  0 14                     
R17  17691344.221                2       1247.399          50.000  
R 1  17418150.896                3      -2275.239          39.000  
R 8  20454416.494                3      -4353.369          35.000  
R23  20626253.240                3      -5049.189          36.000  
R 2  18441274.474    98406102.2442       2162.596          53.000  
G17  19679565.068   103416819.8742      -1208.377          49.000  
G22  19339084.403   101627575.319       -2431.798          43.000  
G 3  18123688.603                3      -1280.713          38.000  
G 1  20038917.397   105305221.1053      -3596.999          42.000  
G11  21093948.959                3      -4458.740          38.000  
G23  19267239.980   101250027.969        1415.175          50.000  
G 4  20190019.090   106099266.3602       2704.368          45.000  
G19  19623018.457                3        -71.191          37.000  
G 9  20875050.409   109699129.5312       2997.682          47.000  
> 2019 11 25  9  8 55.9930000  0 17                     
R17  17691111.116                2       1249.083          50.000  
R 1  17418576.607                3      -2271.533          43.000  
R 8  20455230.211                3      -4349.931          39.000  
R23  20627195.884                3      -5050.928          42.000  
R 2  18440869.062    98403938.9592       2163.685          52.000  
G17  19679794.787   103418026.7892      -1203.204          47.000  
R18  21390732.290                3       3719.978          31.000  
R 9  21169317.618                3      -1105.422          27.000  
G22  19339547.152   101630008.041       -2431.573          43.000  
G14  22245111.318                3      -3768.900          26.000  
G 3  18123930.088    95241894.8952      -1269.465          50.000  
G 1  20039601.354   105308818.4512      -3597.604          47.000  
G11  21094796.468                3      -4479.346          34.000  
G23  19266970.723   101248612.620        1416.073          49.000  
G 4  20189504.937   106096562.0752       2703.482          42.000  
G19  19623032.797                3        -64.453          39.000  
G 9  20874481.121                3       2997.656          38.000  
> 2019 11 25  9  8 56.9930000  0 15                     
R17  17690878.261    94667435.5532       1245.802          50.000  
R 1  17419001.987                2      -2276.243          41.000  
R 8  20456043.090                2      -4348.975          36.000  
R23  20628155.153                3      -5103.418          31.000  
R 2  18440463.645    98401774.1302       2165.110          52.000  
G17  19680024.567   103419232.6972      -1205.867          51.000  
G22  19340010.272   101632442.456       -2434.385          37.000  
G 3  18124172.083                3      -1274.609          40.000  
G 1  20040286.114   105312416.8232      -3599.024          47.000  
G11  21095650.495                3      -4491.309          32.000  
G23  19266701.069   101247197.010        1415.526          49.000  
G 4  20188989.946                3       2706.664          37.000  
G19  19623042.983                3        -58.887          42.000  
G31  21254757.121                3       -819.727          41.000  
G 9  20873909.614                3       2998.291          42.000  
> 2019 11 25  9  8 57.9930000  0 15                     
R17  17690645.828    94666190.5262       1243.649          49.000  
R 1  17419427.672    93116781.5852      -2277.316          44.000  
R 8  20456855.083                3      -4351.172          35.000  
R23  20629101.967                3      -5049.429          26.000  
R 2  18440057.221    98399606.8422       2169.362          51.000  
G17  19680253.706   103420437.1772      -1204.217          49.000  
G22  19340474.264   101634878.1113      -2437.849          48.000  
G 3  18124414.336    95244439.4342      -1272.711          51.000  
G 1  20040970.572   105316014.2122      -3595.449          38.000  
G11  21096500.050                3      -4454.980          26.000  
G23  19266431.228   101245779.059        1420.033          48.000  
G 4  20188475.086                3       2702.539          34.000  
G19  19623053.829                3        -61.182          39.000  
G31  21254916.978                3       -826.496          37.000  
G 9  20873338.385                3       3006.461          38.000  
> 2019 11 25  9  8 58.9930000  0 14                     
R17  17690414.019    94664951.4493       1236.693          43.000  
R 1  17419854.024    93119059.8913      -2284.280          43.000  
R 8  20457668.757                3      -4374.500          26.000  
R23  20630033.084                2      -5033.867          30.000  
R 2  18439650.766    98397436.4941       2170.415          46.000  
G17  19680482.818   103421641.0392      -1204.469          51.000  
G22  19340938.545   101637317.4262      -2440.801          48.000  
G 3  18124656.754    95245714.6062      -1277.061          52.000  
G 1  20041653.827                3      -3592.742          41.000  
G11  21097340.592                3      -4448.193          34.000  
G23  19266160.697   101244357.228        1423.380          49.000  
G19  19623065.551                2        -65.662          42.000  
G31  21255072.360                3       -838.318          39.000  
G 9  20872763.475                3       3017.383          41.000  
> 2019 11 25  9  8 59.9930000  0 15                     
R17  17690182.359    94663714.0442       1236.337          47.000  
R 1  17420281.498    93121344.8642      -2285.656          49.000  
R 8  20458485.418                3      -4374.414          35.000  
R23  20630969.703                3      -4987.781          30.000  
R 2  18439243.818    98395265.639        2170.284          51.000  
G17  19680711.966   103422845.4352      -1205.455          51.000  
G22  19341403.148   101639758.5192      -2441.292          49.000  
G 3  18124899.644    95246991.9122      -1277.828          52.000  
G 1  20042337.832                3      -3591.748          38.000  
G23  19265889.634   101242932.925        1424.286          51.000  
G 6  21211869.590                3       2729.029          33.000  
G 4  20187438.678                3       2721.191          40.000  
G19  19623079.428                3        -68.785          39.000  
G31  21255235.506                3       -831.738          30.000  
G 9  20872191.221                3       3014.355          40.000  
> 2019 11 25  9  9  0.9930000  0 15                     
R17  17689951.026    94662474.3383       1237.844          47.000  
R 1  17420709.063    93123630.2362      -2286.086          49.000  
R 8  20459303.231                3      -4371.826          33.000  
R23  20631913.101                3      -5036.136          33.000  
R 2  18438836.857    98393093.770        2173.082          52.000  
G17  19680941.035   103424049.431       -1202.996          49.000  
G22  19341867.324   101642199.1242      -2441.141          48.000  
G 3  18125142.725    95248269.0452      -1277.272          53.000  
G 1  20043021.379                2      -3591.004          47.000  
G11  21099038.328                3      -4437.330          31.000  
G23  19265618.297   101241507.019        1426.222          50.000  
G 4  20186917.078                2       2721.571          35.000  
G19  19623090.915                3        -60.791          38.000  
G31  21255394.508                3       -847.900          40.000  
G 9  20871614.766                2       3016.113          46.000  
> 2019 11 25  9  9  1.9930000  0 15                     
R17  17689719.671    94661235.9563       1238.492          49.000  
R 1  17421136.305    93125915.6812      -2285.672          46.000  
R 8  20460121.088                3      -4361.100          36.000  
R23  20632861.729                3      -5105.327          28.000  
R 2  18438429.417    98390920.063        2174.175          51.000  
G17  19681169.772   103425251.601       -1201.550          51.000  
G22  19342332.067   101644640.4942      -2442.559          48.000  
G 3  18125385.685    95249545.9592      -1277.078          52.000  
G 1  20043703.002                3      -3591.256          44.000  
G11  21099902.419                3      -4439.773          30.000  
G23  19265347.072   101240080.662        1425.725          51.000  
G 4  20186403.623                2       2724.339          41.000  
G19  19623102.545                2        -65.058          45.000  
G31  21255551.966                3       -842.432          41.000  
G 9  20871041.326                3       3026.367          44.000  
> 2019 11 25  9  9  2.9930000  0 15                     
R17  17689487.980    94659995.7302       1238.770          53.000  
R 1  17421563.705    93128202.3962      -2286.573          50.000  
R 8  20460932.484                3      -4247.852          28.000  
R23  20633794.112                3      -5035.758          33.000  
R 2  18438021.801    98388745.744        2174.966          52.000  
G17  19681398.257   103426453.082       -1200.679          50.000  
R 9  21170770.942                3      -1083.333          26.000  
G22  19342796.993   101647083.8532      -2443.446          49.000  
G 3  18125628.984    95250824.0372      -1277.985          52.000  
G 6  21210313.236                3       2732.373          41.000  
G 1  20044388.359   105333963.1852      -3592.184          49.000  
G23  19265075.774   101238655.399        1425.004          50.000  
G 4  20185882.071   106077519.1082       2723.129          47.000  
G19  19623116.628   103120163.6832        -64.042          47.000  
G31  21255714.083                3       -843.476          29.000  
> 2019 11 25  9  9  3.9930000  0 13                     
R17  17689256.429    94658757.1792       1237.576          52.000  
R 1  17421991.741    93130489.8632      -2289.115          49.000  
R 8  20461738.837                3      -4351.078          28.000  
R23  20634736.428                3      -5024.756          36.000  
R 2  18437614.212    98386570.701        2174.440          51.000  
G17  19681626.606   103427653.794       -1201.374          51.000  
G22  19343262.325   101649528.4892      -2445.735          48.000  
G 3  18125872.075    95252102.6912      -1279.705          52.000  
G 1  20045071.744                3      -3594.101          44.000  
G23  19264804.536   101237230.741        1423.690          51.000  
G19  19623127.451   103120227.5292        -64.861          45.000  
G31  21255873.346   111700367.4512       -847.801          47.000  
G 9  20869892.744                2       3018.823          40.000  
> 2019 11 25  9  9  4.9930000  0 14                     
R17  17689025.030    94657519.3612       1236.870          51.000  
R 1  17422419.887    93132778.2962      -2288.740          48.000  
R 8  20462566.082                3      -4365.436          32.000  
R23  20635685.637                3      -5111.866          29.000  
R 2  18437206.645    98384396.093        2174.858          52.000  
G17  19681855.417   103428854.917       -1201.140          51.000  
G22  19343727.386   101651974.2472      -2445.925          49.000  
G 3  18126115.636    95253382.3022      -1279.466          52.000  
G 4  20184850.881                3       2726.611          35.000  
G 1  20045757.041   105341158.7622      -3596.955          46.000  
G23  19264533.809   101235807.232        1423.481          50.000  
G19  19623140.809   103120300.5633        -63.542          44.000  
G31  21256036.584                3       -848.779          40.000  
G 9  20869319.984                3       3020.654          36.000  
> 2019 11 25  9  9  5.9930000  0 16                     
R17  17688793.985    94656282.4712       1236.573          48.000  
R 1  17422848.272    93135067.7842      -2289.629          49.000  
R 8  20463387.350                3      -4374.567          35.000  
R23  20636615.917                3      -5038.868          38.000  
R 2  18436799.527    98382221.942        2173.861          51.000  
G17  19682084.133   103430056.695       -1202.191          51.000  
G22  19344193.259   101654420.8712      -2446.610          48.000  
G 6  21208753.514                3       2716.650          35.000  
G 3  18126359.263    95254662.8812      -1280.698          52.000  
G 4  20184330.062   106069370.3142       2719.602          42.000  
G 1  20046440.600   105344755.6303      -3596.409          48.000  
G23  19264262.877   101234384.515        1421.671          50.000  
G14  22252320.173                3      -3793.943          26.000  
G19  19623152.671   103120365.9082        -62.978          44.000  
G31  21256198.557                3       -842.725          41.000  
G 9  20868745.610                3       3016.553          38.000  
> 2019 11 25  9  9  6.9930000  0 17                     
R17  17688562.604    94655045.1622       1236.861          51.000  
R 1  17423276.278    93137356.6211      -2290.165          49.000  
R 8  20464205.626                3      -4369.781          33.000  
R23  20637556.436                3      -5039.356          36.000  
R 2  18436392.287    98380048.120        2172.857          52.000  
G17  19682312.775   103431258.503       -1202.558          51.000  
R 9  21171630.985                3      -1174.639          27.000  
G22  19344658.735   101656867.818       -2447.802          48.000  
G 3  18126602.837    95255943.498       -1281.112          52.000  
G 4  20183811.581                2       2718.571          35.000  
G 1  20047126.442                3      -3598.593          46.000  
G23  19263992.621   101232962.960        1420.477          50.000  
G11  21104112.903                3      -4454.492          39.000  
G14  22253063.653                3      -3788.450          25.000  
G19  19623164.991   103120430.3092        -65.194          43.000  
G31  21256361.512                3       -841.309          37.000  
G 9  20868173.190                3       3011.377          40.000  
> 2019 11 25  9  9  7.9930000  0 15                     
R17  17688331.388    94653808.5482       1237.886          51.000  
R 1  17423704.785    93139647.052       -2290.220          44.000  
R 8  20465022.143                3      -4369.824          39.000  
R23  20638515.831                3      -5149.398          22.000  
R 2  18435985.003    98377875.561        2172.271          52.000  
G17  19682541.769   103432461.337       -1202.859          51.000  
R18  21382425.912                3       3703.462          25.000  
G22  19345124.494   101659315.919       -2447.173          48.000  
G 3  18126846.988    95257225.283       -1281.106          52.000  
G 1  20047810.953   105351956.6282      -3599.745          45.000  
G23  19263722.479   101231543.323        1424.569          47.000  
G14  22253774.518                3      -3788.450          27.000  
G19  19623177.350   103120495.1552        -65.357          47.000  
G31  21256522.010                3       -840.869          33.000  
G 9  20867598.742                3       3031.055          34.000  
> 2019 11 25  9  9  8.9930000  0 16                     
R17  17688100.478    94652572.5392       1236.485          52.000  
R 1  17424133.550    93141937.317       -2290.285          49.000  
R 8  20465836.475                3      -4381.934          33.000  
R23  20639453.479                3      -5036.255          28.000  
R 2  18435577.794    98375703.136        2172.160          52.000  
G17  19682770.764   103433664.576       -1203.512          51.000  
R 9  21172058.035                3      -1138.975          28.000  
G22  19345590.328   101661763.778       -2447.926          49.000  
G 6  21207199.136                3       2728.857          36.000  
G 3  18127090.628    95258506.953       -1281.624          52.000  
G 1  20048496.214                3      -3600.231          39.000  
G 4  20182774.549                3       2717.424          46.000  
G23  19263452.266   101230123.578        1420.168          50.000  
G19  19623189.936   103120560.9062        -67.860          46.000  
G31  21256684.123                3       -849.316          42.000  
G 9  20867022.157   109656941.4322       3015.383          43.000  
> 2019 11 25  9  9  9.9930000  0 14                     
R17  17687869.586    94651336.3482       1236.969          53.000  
R 1  17424561.875    93144227.596       -2289.870          49.000  
R 8  20466656.552                3      -4373.633          40.000  
R23  20640392.467                3      -5045.459          32.000  
R 2  18435170.815    98373530.745        2172.669          52.000  
G17  19682999.537   103434867.757       -1202.961          51.000  
G22  19346056.449   101664211.687       -2447.244          48.000  
G 3  18127334.686    95259788.530       -1281.221          52.000  
G 1  20049180.529   105359154.5572      -3600.901          45.000  
G 4  20182262.507                3       2716.351          40.000  
G23  19263182.469   101228704.293        1417.714          50.000  
G19  19623202.348   103120626.2032        -65.091          47.000  
G31  21256846.584                3       -845.361          31.000  
G 9  20866449.606                3       3001.562          38.000  
> 2019 11 25  9  9 10.9930000  0 16                     
R17  17687638.471    94650098.9121       1236.213          53.000  
R 1  17424990.155    93146517.551       -2290.597          50.000  
R 8  20467471.216                3      -4378.857          39.000  
R23  20641333.343                3      -5044.050          41.000  
R 2  18434763.837    98371358.338        2171.436          52.000  
G17  19683228.592   103436070.613       -1203.658          51.000  
R18  21380325.316                3       3733.032          31.000  
G22  19346522.266   101666659.884       -2449.097          48.000  
G 6  21206144.244                3       2738.525          39.000  
G 3  18127578.453    95261069.956       -1282.397          52.000  
G 1  20049867.575   105362756.8862      -3603.114          46.000  
G 4  20181746.112                3       2710.840          39.000  
G23  19262912.191   101227285.902        1417.158          49.000  
G19  19623214.554   103120690.7692        -65.329          48.000  
G31  21257008.509                2       -851.274          43.000  
G 9  20865875.721                2       3015.320          41.000  
> 2019 11 25  9  9 11.9930000  0 16                     
R17  17687407.046    94648862.423        1236.720          53.000  
R 1  17425418.754    93148808.094       -2290.413          50.000  
R 8  20468287.489                2      -4375.950          41.000  
R23  20642271.153                2      -5044.843          32.000  
R 2  18434357.046    98369186.747        2171.720          52.000  
G17  19683457.705   103437274.178       -1203.604          51.000  
R 9  21172700.626                3      -1134.136          28.000  
G22  19346988.274   101669108.896       -2449.069          49.000  
G 3  18127822.625    95262352.176       -1281.785          52.000  
G 1  20050552.810   105366360.8192      -3601.181          44.000  
G 4  20181228.037                3       2712.158          38.000  
G23  19262642.781   101225869.156        1416.224          50.000  
G14  22256670.992                3      -3788.447          26.000  
G19  19623226.939   103120755.5972        -64.200          48.000  
G31  21257170.159   111707185.9102       -851.547          46.000  
G 9  20865300.998                3       3015.479          44.000  
> 2019 11 25  9  9 12.9930000  0 16                     
R17  17687175.822    94647625.142        1237.073          53.000  
R 1  17425847.310    93151097.975       -2289.866          49.000  
R 8  20469105.887                3      -4373.926          37.000  
R23  20643219.725                3      -5049.985          32.000  
R 2  18433949.732    98367015.313        2170.626          52.000  
G17  19683686.604   103438477.562       -1203.752          51.000  
R18  21378931.318                3       3706.349          32.000  
R 9  21172913.375                3      -1117.942          28.000  
G22  19347454.033   101671557.747       -2449.160          49.000  
G 6  21205106.916                2       2739.981          39.000  
G 3  18128066.370    95263634.064       -1282.140          52.000  
G 1  20051238.817   105369966.0612      -3607.694          44.000  
G23  19262373.394   101224453.369        1415.022          49.000  
G19  19623239.224   103120819.3681        -66.422          42.000  
G31  21257331.857   111708037.8172       -852.404          45.000  
G 9  20864727.523                2       3010.516          41.000  
> 2019 11 25  9  9 13.9930000  0 18                     
R17  17686944.763    94646388.202        1236.295          48.000  
R 1  17426275.809    93153388.228       -2290.276          50.000  
R 8  20469921.645   109615462.7312      -4371.342          44.000  
R23  20644155.981                2      -5051.761          49.000  
R 2  18433543.111    98364845.728        2168.587          52.000  
G17  19683915.638   103439682.314       -1205.359          50.000  
R18  21378234.051                3       3713.900          33.000  
R 9  21173118.380                3      -1131.110          37.000  
G22  19347920.120   101674007.575       -2450.015          49.000  
G 6  21204589.717   111430870.1622       2740.347          41.000  
G 3  18128310.394    95264916.886       -1282.791          52.000  
G 1  20051925.557   105373579.5803      -3609.057          46.000  
G 4  20180196.589   106047647.8492       2707.994          45.000  
G23  19262104.495   101223040.506        1411.469          50.000  
G14  22258111.626                3      -3795.965          30.000  
G19  19623251.570   103120883.663         -64.855          48.000  
G31  21257493.608   111708889.5502       -851.065          46.000  
G 9  20864156.796                3       3007.812          37.000  
> 2019 11 25  9  9 14.9930000  0 19                     
R17  17686713.326    94645151.119        1236.930          53.000  
R 1  17426704.172    93155678.482       -2290.637          49.000  
R 8  20470738.459   109619836.9202      -4370.531          47.000  
R23  20645107.254                3      -5051.026          37.000  
R 2  18433136.896    98362677.432        2167.854          52.000  
G17  19684145.170   103440887.883       -1205.996          50.000  
R18  21377537.151                3       3716.101          33.000  
R 9  21173326.260                3      -1132.764          32.000  
G22  19348386.315   101676457.974       -2450.464          48.000  
G 6  21204066.045   111428119.1212       2744.914          41.000  
G 3  18128554.675    95266200.195       -1283.356          51.000  
G11  21110900.061                2      -4466.720          44.000  
G 1  20052612.044   105377189.9912      -3609.837          45.000  
G 4  20179680.953   106044940.1222       2706.599          46.000  
G23  19261835.975   101221629.918        1409.947          49.000  
G14  22258832.163                2      -3781.241          30.000  
G19  19623263.899   103120948.083         -64.327          47.000  
G31  21257655.755   111709741.1192       -851.464          47.000  
G 9  20863582.466   109638865.2342       3004.800          47.000  
> 2019 11 25  9  9 15.9930000  0 17                     
R17  17686481.966    94643913.993        1237.245          52.000  
R 1  17427132.614    93157969.066       -2291.498          49.000  
R 8  20471554.789                3      -4378.418          36.000  
R23  20646042.847                3      -5055.519          36.000  
R 2  18432730.747    98360509.477        2168.123          52.000  
G17  19684374.509   103442093.574       -1205.474          49.000  
R 9  21173544.405                3      -1131.983          35.000  
G22  19348852.882   101678909.176       -2452.051          47.000  
G 6  21203544.305   111425375.3172       2744.409          40.000  
G 3  18128799.074    95267484.072       -1284.244          50.000  
G11  21111745.576   110942994.7992      -4463.837          33.000  
G 1  20053299.448   105380802.1362      -3613.324          46.000  
G 4  20179165.853   106042233.7132       2705.750          44.000  
G23  19261567.643   101220220.720        1408.715          48.000  
G19  19623276.097   103121012.162         -63.602          47.000  
G31  21257817.946   111710593.3222       -853.997          42.000  
G 9  20863010.923   109635860.5722       3005.249          42.000  
> 2019 11 25  9  9 16.9930000  0 17                     
R17  17686250.934    94642677.100        1236.926          51.000  
R 1  17427561.157    93160260.865       -2292.557          49.000  
R 8  20472371.621   109628582.8762      -4372.939          40.000  
R23  20646998.517                3      -5037.647          40.000  
R 2  18432324.358    98358341.064        2167.878          52.000  
G17  19684604.167   103443298.858       -1205.069          50.000  
R18  21376145.282                3       3737.854          27.000  
R 9  21173763.632                3      -1114.844          32.000  
G22  19349319.832   101681361.873       -2453.483          47.000  
G 6  21203022.792                3       2744.319          41.000  
G 3  18129043.311    95268768.884       -1285.360          50.000  
G 1  20053986.869   105384415.6982      -3614.161          46.000  
G 4  20178650.984   106039527.3072       2706.584          42.000  
G23  19261299.590   101218812.020        1408.297          48.000  
G19  19623288.124   103121076.014         -64.491          46.000  
G31  21257980.307                3       -854.626          40.000  
G 9  20862438.608                3       3002.743          35.000  
> 2019 11 25  9  9 17.9930000  0 15                     
R17  17686020.020    94641440.301        1237.703          52.000  
R 1  17427990.232    93162553.103       -2291.435          50.000  
R 8  20473184.317                3      -4369.287          37.000  
R23  20647948.197                3      -5094.876          21.000  
R 2  18431918.518                3       2169.453          40.000  
G17  19684833.498   103444503.911       -1204.449          47.000  
R 9  21173969.637                3      -1126.514          38.000  
G22  19349786.477   101683814.998       -2452.367          47.000  
G 3  18129287.902    95270053.867       -1284.169          50.000  
G 1  20054674.835   105388029.6552      -3614.364          47.000  
G 4  20178135.823   106036820.2062       2706.700          39.000  
G23  19261031.463   101217403.243        1409.669          49.000  
G19  19623300.326   103121139.776         -64.655          42.000  
G31  21258143.415   111712296.2332       -856.257          40.000  
G 9  20861866.791                3       3004.639          40.000  
> 2019 11 25  9  9 18.9930000  0 16                     
R17  17685789.293    94640204.107        1235.737          50.000  
R 1  17428419.219    93164845.260       -2292.200          49.000  
R 8  20474007.099                2      -4371.534          42.000  
R23  20648882.006                3      -5037.226          35.000  
R 2  18431511.976    98354004.5732       2167.866          52.000  
G17  19685062.571   103445709.425       -1206.440          50.000  
R18  21374746.595                3       3737.959          32.000  
R 9  21174183.293                3      -1078.955          31.000  
G22  19350253.144   101686267.626       -2452.015          48.000  
G 3  18129532.275    95271338.748       -1284.966          51.000  
G 1  20055362.652   105391643.0662      -3613.441          47.000  
G 4  20177621.090   106034113.4062       2704.652          37.000  
G23  19260763.493   101215994.531        1407.496          45.000  
G19  19623312.515   103121204.227         -70.005          43.000  
G31  21258305.846                3       -857.850          44.000  
G 9  20861298.943                3       3007.764          36.000  
> 2019 11 25  9  9 19.9930000  0 17                     
R17  17685558.745                3       1234.269          52.000  
R 1  17428848.102    93167137.721       -2295.355          42.000  
R 8  20474820.951                3      -4364.893          41.000  
R23  20649834.884                3      -5078.196          32.000  
R 2  18431105.822    98351838.4172       2164.683          51.000  
G17  19685292.596   103446917.469       -1209.938          50.000  
R 9  21174401.534                3      -1223.779          30.000  
G22  19350719.614   101688719.581       -2451.920          47.000  
G 3  18129776.805                3      -1277.344          45.000  
G 1  20056050.126                3      -3610.045          45.000  
G 4  20177106.291                3       2712.695          35.000  
G23  19260495.737   101214587.5703       1405.055          47.000  
G11  21115149.180                3      -4476.318          33.000  
G14  22262444.345                3      -3801.881          30.000  
G19  19623327.400   103121280.8973        -68.809          47.000  
G31  21258468.922                3       -859.961          42.000  
G 9  20860725.900                3       3007.129          36.000  
> 2019 11 25  9  9 20.9930000  0 18                     
R17  17685328.773    94637739.4832       1231.801          47.000  
R 1  17429277.102    93169431.1583      -2292.709          48.000  
R 8  20475640.710                3      -4338.818          33.000  
R23  20650779.735                2      -5045.820          32.000  
R 2  18430699.930    98349670.9573       2164.461          51.000  
G17  19685523.004   103448128.368       -1209.822          47.000  
R18  21373370.662                3       3621.442          28.000  
R 9  21174617.262                3      -1128.368          24.000  
G22  19351186.403   101691171.521       -2451.688          44.000  
G 6  21200932.557                3       2750.488          36.000  
G 3  18130021.837    95273906.9922      -1285.575          51.000  
G 1  20056737.612   105398866.9992      -3613.570          44.000  
G 4  20176592.303                2       2700.118          39.000  
G23  19260228.182   101213181.3102       1406.604          50.000  
G14  22263167.634                3      -3798.368          27.000  
G19  19623338.027                2        -71.565          40.000  
G31  21258632.588                2       -851.977          43.000  
G 9  20860153.738                3       2999.652          48.000  
> 2019 11 25  9  9 21.9930000  0 14                     
R17  17685099.193                3       1228.548          47.000  
R 1  17429706.151    93171723.7262      -2292.948          47.000  
R 8  20476456.320                3      -4351.807          34.000  
R23  20651727.915                3      -5080.567          34.000  
R 2  18430295.530    98347509.9552       2159.492          51.000  
G17  19685753.914   103449342.401       -1216.223          49.000  
G22  19351652.612   101693621.012       -2448.176          47.000  
G 3  18130266.445    95275192.5112      -1285.815          51.000  
G 1  20057423.741   105402477.2822      -3606.920          45.000  
G 4  20176076.366                3       2704.053          37.000  
G23  19259960.657   101211774.9242       1407.902          45.000  
G11  21116846.772                2      -4463.895          40.000  
G19  19623351.966                3        -77.007          35.000  
G31  21258793.946                3       -840.137          41.000  
> 2019 11 25  9  9 22.9930000  0 17                     
R17  17684870.430    94635286.6602       1217.836          52.000  
R 1  17430134.815                3      -2295.885          44.000  
R 8  20477271.398                3      -4358.105          34.000  
R23  20652666.671                3      -5043.165          38.000  
R 2  18429891.361    98345352.4842       2155.443          51.000  
G17  19685986.229   103450561.714       -1223.089          50.000  
R18  21372003.948                3       3672.769          27.000  
G22  19352118.110   101696067.848       -2445.317          48.000  
G 3  18130511.202    95276478.4302      -1285.519          44.000  
G 1  20058111.655                3      -3596.826          42.000  
G 4  20175561.096   106023288.1682       2708.397          46.000  
G23  19259692.643   101210366.2262       1408.436          47.000  
G11  21117691.633                2      -4454.615          40.000  
G14  22264610.615                3      -3762.873          26.000  
G19  19623368.064   103121494.9822        -87.178          45.000  
G31  21258954.819                3       -841.084          34.000  
G 9  20859012.105                2       3002.755          44.000  
> 2019 11 25  9  9 23.9930000  0 18                     
R17  17684643.568    94634072.7382       1209.910          53.000  
R 1  17430564.335    93176311.8802      -2297.142          51.000  
R 8  20478083.304                3      -4353.223          38.000  
R23  20653607.870                3      -5033.936          38.000  
R 2  18429486.690    98343199.4942       2152.366          49.000  
G17  19686219.621   103451788.018       -1228.333          50.000  
R18  21371295.775                3       3682.129          35.000  
R 9  21175250.116                3      -1155.887          33.000  
G22  19352583.176   101698510.859       -2440.809          47.000  
G 3  18130755.819    95277764.6772      -1286.418          52.000  
G 1  20058791.947   105409662.2582      -3588.766          48.000  
G 4  20175050.058                3       2714.551          38.000  
G23  19259424.477   101208953.5622       1415.306          37.000  
G11  21118544.901                3      -4439.600          32.000  
G14  22265332.931                3      -3784.358          27.000  
G19  19623385.505   103121586.6922        -96.264          45.000  
G31  21259115.736                2       -847.505          42.000  
G 9  20858438.669                3       3011.388          47.000  
> 2019 11 25  9  9 24.9930000  0 19                     
R17  17684418.072    94632866.0773       1204.694          48.000  
R 1  17430994.256    93178609.2712      -2297.406          50.000  
R 8  20478898.203   109663531.7652      -4362.341          42.000  
R23  20654547.534                3      -5029.346          42.000  
R 2  18429084.459    98341048.2352       2149.479          52.000  
G17  19686453.471   103453018.297       -1233.032          49.000  
R18  21370604.502                3       3567.108          26.000  
R 9  21175468.366                3      -1150.866          35.000  
G22  19353047.552   101700951.080       -2438.795          47.000  
G 6  21198861.784   111400770.5292       2702.301          39.000  
G 3  18131000.825    95279051.1562      -1286.258          51.000  
G 1  20059478.583                3      -3582.111          45.000  
G 4  20174531.053   106017875.6692       2713.292          43.000  
G23  19259153.794                2       1419.040          42.000  
G11  21119387.014                3      -4438.818          37.000  
G14  22266058.302                3      -3792.016          26.000  
G19  19623404.456   103121685.2412       -100.258          47.000  
G31  21259276.553   111718253.6462       -845.866          48.000  
G 9  20857865.020   109608823.6312       3012.877          44.000  
> 2019 11 25  9  9 25.9930000  0 19                     
R17  17684193.327    94631663.1292       1199.934          52.000  
R 1  17431423.811    93180905.4242      -2295.156          49.000  
R 8  20479711.527                3      -4351.074          42.000  
R23  20655488.659                3      -5009.375          42.000  
R 2  18428681.804    98338902.7442       2142.749          53.000  
G17  19686689.054   103454255.126       -1242.168          50.000  
R18  21369920.785                3       3679.504          31.000  
R 9  21175683.483                3      -1116.439          31.000  
G22  19353511.156   101703387.055       -2434.927          46.000  
G 6  21198349.615                3       2698.539          37.000  
G 3  18131245.267    95280336.6462      -1285.483          52.000  
G 1  20060164.891                3      -3559.778          39.000  
G 4  20174013.353   106015155.1643       2708.580          46.000  
G23  19258883.830   101206117.3333       1413.467          45.000  
G11  21120231.434                3      -4444.238          32.000  
G14  22266778.499   117012709.9212      -3788.694          35.000  
G19  19623423.346   103121791.0282       -108.491          46.000  
G31  21259438.260   111719095.8032       -838.850          50.000  
G 9  20857297.176                3       3000.879          40.000  
> 2019 11 25  9  9 26.9930000  0 19                     
R17  17683969.283    94630464.2842       1196.900          52.000  
R 1  17431853.204    93183199.8032      -2293.745          48.000  
R 8  20480523.350                3      -4347.607          36.000  
R23  20656428.807                3      -5046.338          39.000  
R 2  18428281.020    98336763.5963       2135.158          52.000  
G17  19686925.814   103455499.089       -1248.750          46.000  
R18  21369219.133                3       3663.644          31.000  
R 9  21175898.479                3      -1149.077          35.000  
G22  19353974.137   101705819.052       -2432.114          43.000  
G 6  21197840.401                3       2691.895          38.000  
G 3  18131489.675    95281621.4152      -1283.941          49.000  
G 1  20060840.237                2      -3575.052          44.000  
G 4  20173499.662                3       2706.836          33.000  
G23  19258614.848                3       1411.649          43.000  
G11  21121075.117                2      -4442.006          39.000  
G14  22267498.743   117016495.6262      -3781.394          36.000  
G19  19623445.704   103121902.4273       -115.442          43.000  
G31  21259597.489   111719931.2582       -833.357          46.000  
G 9  20856721.053                2       2999.877          48.000  
> 2019 11 25  9  9 27.9930000  0 18                     
R17  17683746.130    94629270.2012       1193.581          41.000  
R 1  17432282.880    93185493.7192      -2294.619          49.000  
R 8  20481333.970                3      -4340.137          34.000  
R23  20657370.661                3      -5065.381          39.000  
R 2  18427881.170    98334629.3352       2132.715          53.000  
G17  19687163.455   103456748.021       -1250.702          48.000  
R18  21368540.481                3       3651.515          31.000  
R 9  21176111.969                3      -1152.237          37.000  
G22  19354436.445   101708247.311       -2427.786          46.000  
G 3  18131734.052    95282905.5712      -1283.841          52.000  
G 1  20061521.676                3      -3562.793          40.000  
G 4  20172982.442   106009738.2222       2709.975          46.000  
G23  19258345.831   101203290.0352       1415.861          49.000  
G11  21121918.015                3      -4429.239          40.000  
G14  22268218.342                3      -3781.473          28.000  
G19  19623468.402                3       -121.045          42.000  
G31  21259755.741                3       -829.541          41.000  
G 9  20856150.811   109599806.6832       3004.127          48.000  
> 2019 11 25  9  9 28.9930000  0 19                     
R17  17683524.329    94628083.2842       1182.571          52.000  
R 1  17432712.208    93187789.6492      -2297.585          49.000  
R 8  20482145.745                2      -4347.456          47.000  
R23  20658327.068                3      -5072.266          32.000  
R 2  18427481.486    98332497.0932       2136.287          42.000  
G17  19687401.799   103458001.746       -1258.223          49.000  
R18  21367853.885                3       3644.233          34.000  
R 9  21176327.964                3      -1159.447          35.000  
G22  19354900.865                3      -2426.423          34.000  
G 6  21196816.339                2       2668.092          44.000  
G 3  18131978.565    95284189.9222      -1284.732          52.000  
G 1  20062198.880   105427566.0442      -3552.640          40.000  
G 4  20172465.659   106007023.8912       2717.450          46.000  
G23  19258076.208   101201870.0742       1422.826          50.000  
G11  21122758.605                3      -4415.723          36.000  
G14  22268936.297                3      -3786.867          32.000  
G19  19623495.215                2       -137.895          38.000  
G31  21259916.658                2       -828.267          41.000  
G 9  20855578.282   109596799.2642       3011.381          48.000  
> 2019 11 25  9  9 29.9930000  0 19                     
R17  17683304.103    94626906.0502       1173.597          52.000  
R 1  17433141.523    93190087.4982      -2298.469          50.000  
R 8  20482958.192   109685272.2732      -4349.972          43.000  
R23  20659279.160                3      -5088.086          35.000  
R 2  18427083.320                3       2128.516          46.000  
G17  19687641.705                3      -1265.709          41.000  
R18  21367172.424                2       3625.435          35.000  
R 9  21176546.209                3      -1171.341          34.000  
G22  19355358.257                3      -2417.881          46.000  
G 6  21196311.661                3       2656.651          38.000  
G 3  18132223.090    95285474.2662      -1283.615          52.000  
G 1  20062872.053                3      -3554.695          37.000  
G 4  20171947.941   106004303.2282       2722.788          45.000  
G23  19257803.544   101200444.3282       1428.685          49.000  
G11  21123596.783                2      -4400.720          40.000  
G14  22269659.168                3      -3780.127          36.000  
G19  19623520.578                3       -140.918          44.000  
G31  21260072.876                3       -826.807          40.000  
G 9  20855005.012   109593786.4142       3015.285          46.000  
> 2019 11 25  9  9 30.9930000  0 20                     
R17  17683085.587    94625735.4872       1168.522          49.000  
R 1  17433571.483    93192385.744       -2298.114          50.000  
R 8  20483769.780                3      -4347.314          39.000  
R23  20660227.824                3      -5080.833          31.000  
R 2  18426686.092    98328252.1712       2125.105          49.000  
G17  19687885.030   103460533.6662      -1266.345          43.000  
R18  21366487.965                3       3644.922          31.000  
R 9  21176759.769                3      -1181.152          43.000  
G22  19355817.652   101715507.5152      -2413.723          47.000  
G 6  21195810.434                3       2613.379          30.000  
G 3  18132467.293    95286757.582       -1282.613          52.000  
G12  22884941.220                3       -877.125          24.000  
G 1  20063546.395                3      -3538.672          47.000  
G 4  20171429.308   106001577.4962       2728.420          46.000  
G23  19257531.089   101199013.6842       1433.099          48.000  
G11  21124433.473                2      -4392.633          40.000  
G14  22270380.939                3      -3785.015          27.000  
G19  19623546.339                3       -154.199          36.000  
G31  21260229.217                2       -825.942          41.000  
G 9  20854430.716   109590769.2872       3018.680          44.000  
> 2019 11 25  9  9 31.9930000  0 19                     
R17  17682867.428    94624568.8542       1165.431          48.000  
R 1  17434001.583    93194685.346       -2300.801          50.000  
R 8  20484582.070                3      -4347.844          37.000  
R23  20661151.372                3      -4978.131          34.000  
R 2  18426290.064                3       2127.783          48.000  
G17  19688124.081   103461789.4383      -1267.613          47.000  
R18  21365806.011                3       3618.212          32.000  
R 9  21176978.883   113083816.2932      -1185.646          43.000  
G22  19356274.725   101717921.6352      -2415.034          48.000  
G 6  21195305.831                3       2639.023          29.000  
G 3  18132711.714    95288041.062       -1284.178          52.000  
G12  22885109.135                3       -918.751          22.000  
G 1  20064219.415   105438183.9162      -3537.237          46.000  
G 4  20170909.806   105998848.1832       2730.536          41.000  
G23  19257259.040   101197579.9462       1434.546          49.000  
G11  21125268.261                3      -4389.404          37.000  
G14  22271103.513                3      -3756.174          27.000  
G19  19623576.650   103122591.2562       -150.214          43.000  
G 9  20853856.124   109587748.8112       3019.808          42.000  
> 2019 11 25  9  9 32.9930000  0 18                     
R17  17682649.711    94623404.582        1163.569          50.000  
R 1  17434432.014    93196987.117       -2303.032          49.000  
R 8  20485400.276                3      -4350.365          34.000  
R23  20662069.380                3      -4989.644          34.000  
R 2  18425889.564                2       2126.774          49.000  
G17  19688366.739                2      -1272.010          46.000  
R18  21365136.799                3       3604.932          32.000  
R 9  21177205.583   113085002.6792      -1189.575          47.000  
G22  19356738.090   101720336.5702      -2416.390          48.000  
G 6  21194799.390                3       2662.117          30.000  
G 3  18132956.296    95289325.506       -1285.639          52.000  
G 1  20064892.304                3      -3539.905          38.000  
G 4  20170389.746   105996113.3423       2733.437          44.000  
G23  19256985.896   101196143.9872       1435.985          49.000  
G11  21126104.898                3      -4383.154          34.000  
G19  19623602.180                3       -155.713          40.000  
G31  21260547.409                3       -827.492          38.000  
G 9  20853280.909                3       3026.855          40.000  
> 2019 11 25  9  9 33.9930000  0 17                     
R17  17682432.429                3       1162.700          50.000  
R 1  17434863.052    93199291.103       -2303.851          50.000  
R 8  20486213.029                2      -4356.301          43.000  
R23  20662978.886                3      -4981.153          35.000  
R 2  18425488.121                3       2127.246          49.000  
G17  19688607.295                3      -1264.169          38.000  
R 9  21177426.302   113086194.4502      -1194.900          45.000  
G22  19357197.065   101722752.7042      -2417.314          48.000  
G 6  21194293.770                3       2640.677          34.000  
G 3  18133200.800    95290610.933       -1285.136          52.000  
G 1  20065567.064                3      -3527.393          40.000  
G 4  20169869.315   105993377.0542       2739.091          45.000  
G23  19256711.993   101194705.7742       1440.036          49.000  
G11  21126936.942                3      -4385.547          35.000  
G19  19623633.372                2       -154.148          42.000  
G31  21260708.165                3       -833.740          37.000  
G 9  20852704.694                2       3030.465          43.000  
> 2019 11 25  9  9 34.9930000  0 17                     
R17  17682215.802    94621080.9112       1159.091          49.000  
R 1  17435294.330    93201596.324       -2306.038          50.000  
R 8  20487027.304                3      -4354.932          37.000  
R23  20663905.636                3      -5083.399          34.000  
R 2  18425090.483                3       2136.035          42.000  
G17  19688849.085                3      -1275.879          44.000  
R18  21363777.423                2       3606.163          32.000  
R 9  21177650.974   113087388.7862      -1195.802          45.000  
G22  19357656.237   101725169.3063      -2417.007          48.000  
G 3  18133445.434    95291897.098       -1286.612          52.000  
G 1  20066237.388                3      -3526.562          42.000  
G 4  20169348.430   105990640.1412       2738.407          46.000  
G23  19256438.413   101193267.3672       1438.459          49.000  
G11  21127768.912                3      -4393.604          35.000  
G19  19623662.933                3       -153.751          39.000  
G31  21260864.379                3       -839.160          38.000  
G 9  20852128.243   109578673.7252       3029.589          49.000  
> 2019 11 25  9  9 35.9930000  0 16                     
R17  17681999.066    94619921.4753       1159.417          51.000  
R 1  17435725.887    93203902.894       -2307.793          50.000  
R 8  20487843.494                3      -4334.521          35.000  
R23  20664848.476                3      -5035.710          25.000  
R 2  18424692.112    98317611.8262       2129.299          51.000  
G17  19689090.836                3      -1270.361          44.000  
R 9  21177873.713   113088586.3842      -1199.653          44.000  
G22  19358116.958   101727586.6802      -2418.082          48.000  
G 6  21193294.453                3       2649.707          34.000  
G 3  18133690.344    95293183.999       -1287.579          52.000  
G 1  20066908.724   105452316.5522      -3532.695          43.000  
G 4  20168827.131   105987901.7622       2739.857          46.000  
G23  19256164.288   101191828.0962       1439.723          48.000  
G19  19623693.261                2       -154.118          41.000  
G31  21261024.092                3       -843.945          36.000  
G 9  20851551.505   109575643.3292       3031.875          48.000  
> 2019 11 25  9  9 36.9930000  0 16                     
R17  17681782.352    94618761.7272       1158.031          52.000  
R 1  17436157.819    93206211.483       -2310.057          49.000  
R 8  20488657.721                3      -4370.605          31.000  
R23  20665765.319                3      -4972.862          31.000  
R 2  18424293.270    98315484.3082       2128.933          50.000  
G17  19689329.437   103468123.9172      -1266.080          49.000  
R 9  21178098.772   113089788.1222      -1203.927          42.000  
G22  19358576.632   101730005.6062      -2421.168          44.000  
G 6  21192790.569                3       2628.613          37.000  
G 3  18133935.244    95294472.015       -1288.829          52.000  
G 1  20067580.920                3      -3529.348          41.000  
G 4  20168305.653   105985161.0172       2741.412          47.000  
G23  19255890.402   101190387.0551       1440.760          49.000  
G11  21129437.907                3      -4402.052          30.000  
G19  19623722.477   103123357.0242       -156.120          44.000  
G 9  20850974.221   109572610.1852       3034.837          48.000  
> 2019 11 25  9  9 37.9930000  0 18                     
R17  17681566.039    94617605.1532       1155.542          53.000  
R 1  17436590.148    93208522.818       -2312.295          50.000  
R 8  20489470.766                2      -4372.553          37.000  
R23  20666684.243                3      -5005.128          31.000  
R 2  18423891.413    98313354.0882       2130.188          45.000  
G17  19689570.782   103469390.9842      -1266.993          48.000  
R18  21361745.044                3       3634.561          29.000  
R 9  21178324.343   113090994.1932      -1208.585          42.000  
G22  19359037.365   101732426.2392      -2421.610          48.000  
G 6  21192288.553                2       2632.201          45.000  
G 3  18134180.874    95295761.919       -1290.569          52.000  
G 1  20068252.470                3      -3522.656          39.000  
G 4  20167783.656   105982418.2072       2744.342          47.000  
G23  19255616.198   101188945.839        1441.737          49.000  
G11  21130270.623                3      -4376.925          34.000  
G19  19623750.865   103123506.5082       -158.908          45.000  
G31  21261341.564                3       -847.293          32.000  
G 9  20850396.497   109569574.7472       3036.344          44.000  
> 2019 11 25  9  9 38.9930000  0 18                     
R17  17681350.128    94616450.0852       1154.941          52.000  
R 1  17437022.726    93210835.497       -2312.488          50.000  
R 8  20490286.171                3      -4358.498          37.000  
R23  20667604.293                3      -4981.431          31.000  
R 2  18423493.130    98311223.3892       2130.150          45.000  
G17  19689813.092                3      -1269.115          48.000  
R18  21361068.172                3       3600.334          29.000  
R 9  21178551.056   113092203.1671      -1209.046          46.000  
G22  19359497.973   101734847.3302      -2420.522          48.000  
G 6  21191790.462                3       2648.242          33.000  
G 3  18134426.307    95297052.373       -1290.068          52.000  
G 1  20068923.915                2      -3529.047          46.000  
G 4  20167261.594   105979673.5352       2743.770          47.000  
G23  19255341.846   101187503.424        1441.849          49.000  
G11  21131103.465                2      -4372.009          37.000  
G19  19623783.021                3       -180.273          31.000  
G31  21261504.008                3       -835.157          32.000  
G 9  20849818.458   109566537.1802       3036.144          47.000  
> 2019 11 25  9  9 39.9930000  0 18                     
R17  17681134.687                3       1155.566          46.000  
R 1  17437455.121    93213148.486       -2313.319          49.000  
R 8  20491103.465                2      -4373.453          39.000  
R23  20668522.733                3      -4971.924          34.000  
R 2  18423095.086                3       2130.447          50.000  
G17  19690053.752                2      -1268.443          49.000  
R18  21360388.464                3       3636.046          28.000  
R 9  21178777.883   113093413.658       -1211.899          47.000  
G22  19359958.938   101737268.3662      -2421.620          47.000  
G 6  21191288.031                3       2641.797          36.000  
G 3  18134672.141    95298343.020       -1290.679          52.000  
G 1  20069595.050                3      -3526.221          40.000  
G 4  20166739.444   105976928.9022       2745.708          47.000  
G23  19255067.319   101186061.097        1443.011          49.000  
G11  21131935.945                3      -4371.386          32.000  
G19  19623814.427                3       -164.648          41.000  
G31  21261670.749                3       -850.347          33.000  
G 9  20849240.385   109563499.5572       3039.287          44.000  
> 2019 11 25  9  9 40.9930000  0 18                     
R17  17680918.702    94614140.6932       1153.505          52.000  
R 1  17437888.130    93215462.218       -2314.054          50.000  
R 8  20491917.828                3      -4363.916          34.000  
R23  20669450.452                3      -4977.100          33.000  
R 2  18422695.847                3       2130.322          44.000  
G17  19690294.404   103473195.1583      -1267.980          47.000  
R18  21359714.305                3       3596.570          28.000  
R 9  21179005.019   113094626.303       -1213.063          46.000  
G22  19360419.580   101739689.5182      -2421.287          47.000  
G 6  21190791.389                3       2634.704          35.000  
G 3  18134917.910    95299633.810       -1290.769          52.000  
G 1  20070265.989                2      -3528.056          38.000  
G 4  20166216.927   105974182.1932       2748.688          46.000  
G23  19254792.404   101184617.439        1444.987          49.000  
G11  21132768.905                3      -4371.472          35.000  
G19  19623844.481                2       -158.573          41.000  
G31  21261829.437                3       -825.781          38.000  
G 9  20848662.124   109560459.7572       3040.788          44.000  
> 2019 11 25  9  9 41.9930000  0 18                     
R17  17680703.588    94612988.7392       1150.400          51.000  
R 1  17438321.459    93217777.971       -2316.630          50.000  
R 8  20492733.966                3      -4378.369          34.000  
R23  20670382.245                3      -4993.067          30.000  
R 2  18422296.258                3       2134.912          48.000  
G17  19690535.029                2      -1266.474          46.000  
R18  21359039.632                3       3646.300          28.000  
R 9  21179232.836   113095842.589       -1217.438          48.000  
G22  19360880.597                3      -2418.866          47.000  
G 6  21190287.213                3       2632.407          39.000  
G 3  18135163.727    95300925.943       -1292.551          52.000  
G 1  20070937.443                3      -3527.737          42.000  
G 4  20165693.997                3       2749.531          42.000  
G23  19254517.615   101183173.403        1444.211          48.000  
G11  21133599.056                3      -4375.877          30.000  
G19  19623874.491                3       -157.422          39.000  
G31  21261996.772                3       -804.492          32.000  
G 9  20848083.793                3       3027.881          36.000  
> 2019 11 25  9  9 42.9930000  0 18                     
R17  17680488.619                2       1150.798          45.000  
R 1  17438754.756    93220095.364       -2318.491          50.000  
R 8  20493549.235                3      -4359.814          35.000  
R23  20671303.311                3      -4944.532          35.000  
R 2  18421896.404                3       2132.220          44.000  
G17  19690777.011                3      -1274.561          44.000  
R18  21358364.186                3       3587.726          29.000  
R 9  21179461.233   113097062.227       -1220.944          49.000  
G22  19361342.190   101744539.6892      -2424.532          48.000  
G 6  21189786.663                3       2622.218          30.000  
G 3  18135409.530    95302219.032       -1293.560          52.000  
G 1  20071609.241                3      -3527.182          41.000  
G 4  20165170.835   105968687.4102       2750.338          45.000  
G23  19254242.700   101181728.709        1444.597          48.000  
G11  21134432.844                3      -4403.712          27.000  
G19  19623905.024                3       -155.225          37.000  
G31  21262154.037                3       -867.334          33.000  
G 9  20847506.204                3       3019.043          33.000  
> 2019 11 25  9  9 43.9930000  0 18                     
R17  17680273.881    94610688.6342       1149.186          44.000  
R 1  17439188.298    93222414.054       -2318.100          49.000  
R 8  20494360.863                2      -4369.794          45.000  
R23  20672224.063                3      -4929.151          33.000  
R 2  18421497.270                3       2123.145          41.000  
G17  19691018.553                3      -1266.602          40.000  
R18  21357694.312                3       3613.752          29.000  
R 9  21179689.923   113098283.756       -1223.250          41.000  
G22  19361803.648   101746964.2152      -2424.133          48.000  
G 6  21189286.762                3       2629.932          37.000  
G 3  18135656.167    95303513.172       -1293.984          53.000  
G 1  20072280.713                3      -3525.488          35.000  
G 4  20164647.568   105965938.1762       2748.963          46.000  
G23  19253968.064   101180284.499        1444.958          48.000  
G11  21135266.398                3      -4375.732          35.000  
G19  19623935.388                3       -162.695          43.000  
G31  21262316.085                3       -851.660          37.000  
G 9  20846928.035                2       3043.548          44.000  
> 2019 11 25  9  9 44.9930000  0 18                     
R17  17680059.339                3       1153.369          42.000  
R 1  17439621.971    93224732.906       -2318.819          50.000  
R 8  20495180.102                3      -4356.690          37.000  
R23  20673153.074                3      -4970.850          35.000  
R 2  18421098.689                2       2132.489          46.000  
G17  19691260.919                3      -1265.918          41.000  
R 9  21179918.760   113099506.197       -1223.535          43.000  
G22  19362265.093   101749388.6232      -2427.006          39.000  
G 6  21188788.737                3       2646.533          30.000  
G 3  18135902.185    95304807.293       -1294.228          52.000  
G 1  20072952.398                3      -3521.924          42.000  
G 4  20164124.057   105963188.8512       2748.872          46.000  
G23  19253693.197   101178840.282        1443.790          49.000  
G11  21136086.117                2      -4368.414          35.000  
G14  22280506.201                3      -3782.921          29.000  
G19  19623966.916                3       -164.600          41.000  
G31  21262482.032                3       -847.607          37.000  
G 9  20846347.662   109548302.0842       3043.570          47.000  
> 2019 11 25  9  9 45.9930000  0 18                     
R17  17679844.750    94608393.0042       1146.884          52.000  
R 1  17440055.753    93227052.373       -2320.040          50.000  
R 8  20495997.396                2      -4371.359          39.000  
R23  20674095.878                3      -5062.940          30.000  
R 2  18420698.935    98296305.9772       2129.699          48.000  
G17  19691502.142                2      -1275.354          40.000  
R18  21356346.335                3       3575.349          29.000  
R 9  21180147.825   113100729.494       -1225.524          47.000  
G22  19362726.158   101751813.1422      -2425.688          48.000  
G 6  21188284.081                3       2625.000          37.000  
G 3  18136148.508    95306101.865       -1295.217          52.000  
G 1  20073622.844   105487599.4922      -3527.847          45.000  
G 4  20163601.214   105960439.7542       2748.606          47.000  
G23  19253418.487   101177396.485        1442.760          48.000  
G11  21136926.502                3      -4377.979          39.000  
G19  19623998.043   103124805.1962       -165.255          43.000  
G31  21262645.449                3       -856.787          30.000  
G 9  20845767.874   109545259.1032       3042.282          46.000  
> 2019 11 25  9  9 46.9930000  0 18                     
R17  17679630.426    94607246.5042       1146.368          51.000  
R 1  17440490.023    93229372.571       -2320.474          49.000  
R 8  20496813.185                3      -4370.166          34.000  
R23  20675022.232                3      -4968.116          35.000  
R 2  18420298.095                3       2132.339          48.000  
G17  19691743.819                3      -1272.995          38.000  
R 9  21180377.300   113101953.577       -1223.757          45.000  
G22  19363187.655   101754238.5332      -2425.531          48.000  
G 6  21187783.631                2       2628.056          45.000  
G 3  18136394.975    95307397.064       -1295.573          52.000  
G 1  20074293.997                3      -3530.065          43.000  
G 4  20163078.231   105957691.1492       2748.509          47.000  
G23  19253143.886   101175953.362        1442.742          49.000  
G11  21137756.622                3      -4358.154          29.000  
G14  22281961.226                3      -3808.084          27.000  
G19  19624029.370                3       -165.067          37.000  
G31  21262805.123                3       -857.617          38.000  
G 9  20845188.239   109542216.3812       3043.685          45.000  
> 2019 11 25  9  9 47.9930000  0 17                     
R17  17679416.063    94606099.6422       1147.109          51.000  
R 1  17440923.936    93231693.106       -2320.581          49.000  
R 8  20497633.952                3      -4396.338          34.000  
R23  20675948.773                3      -4949.659          41.000  
R 2  18419898.236                2       2129.320          47.000  
G17  19691984.580                3      -1271.729          45.000  
R 9  21180606.373   113103178.233       -1224.006          45.000  
G22  19363649.065   101756664.0682      -2425.444          44.000  
G 6  21187282.923                3       2627.686          39.000  
G 3  18136641.477    95308692.529       -1295.843          52.000  
G 1  20074965.459                3      -3519.824          36.000  
G 4  20162555.226   105954942.9412       2748.761          43.000  
G23  19252869.390   101174510.700        1442.786          49.000  
G14  22282691.592                3      -3819.506          26.000  
G19  19624061.444                3       -173.975          47.000  
G31  21262967.868                3       -844.336          37.000  
G 9  20844609.197                2       3041.571          41.000  
> 2019 11 25  9  9 48.9930000  0 18                     
R17  17679201.788                3       1146.582          47.000  
R 1  17441357.940    93234013.906       -2321.794          50.000  
R 8  20498449.955                2      -4371.934          41.000  
R23  20676874.961                3      -4970.850          36.000  
R 2  18419501.746                3       2129.599          47.000  
G17  19692225.235                2      -1269.892          44.000  
R18  21354330.054                3       3604.271          28.000  
R 9  21180836.232   113104403.569       -1226.386          47.000  
G22  19364110.816   101759089.5582      -2427.179          44.000  
G 6  21186784.536                3       2606.258          30.000  
G 3  18136888.127    95309988.179       -1296.209          52.000  
G 1  20075636.311                2      -3526.449          48.000  
G 4  20162032.165   105952195.2652       2746.551          47.000  
G23  19252594.754   101173068.512        1441.376          48.000  
G11  21139418.027                3      -4375.537          39.000  
G19  19624094.075                3       -164.893          44.000  
G31  21263130.683                3       -852.490          36.000  
G 9  20844030.299   109536117.5343       3041.994          47.000  
> 2019 11 25  9  9 49.9930000  0 18                     
R17  17678987.887    94603807.8062       1144.290          41.000  
R 1  17441792.656    93236335.360       -2321.961          50.000  
R 8  20499263.292                2      -4372.853          35.000  
R23  20677801.755                3      -4982.422          40.000  
R 2  18419101.721                3       2129.590          48.000  
G17  19692466.860                3      -1272.944          49.000  
R 9  21181065.881   113105629.366       -1226.397          47.000  
G22  19364571.968   101761511.9563      -2426.276          49.000  
G 6  21186286.079                3       2629.443          31.000  
G 3  18137134.973    95311284.478       -1296.007          52.000  
G 1  20076306.273   105501709.6222      -3524.808          44.000  
G 4  20161509.487   105949448.2842       2746.485          47.000  
G23  19252320.293   101171627.202        1441.433          49.000  
G11  21140246.616                3      -4357.080          33.000  
G14  22284147.660                3      -3816.039          25.000  
G19  19624123.963                3       -165.381          44.000  
G31  21263294.296                3       -874.561          33.000  
G 9  20843451.388   109533076.2872       3041.197          48.000  
> 2019 11 25  9  9 50.9930000  0 19                     
R17  17678773.991    94602663.0433       1145.769          44.000  
R 1  17442227.027    93238657.035       -2321.887          50.000  
R 8  20500078.091                3      -4371.816          46.000  
R23  20678726.935                3      -4973.682          39.000  
R 2  18418702.137                2       2127.693          45.000  
G17  19692709.872   103485888.3052      -1273.188          49.000  
R18  21352988.215                3       3601.719          29.000  
R 9  21181295.378   113106855.640       -1225.816          45.000  
G22  19365033.474   101763937.9852      -2427.618          46.000  
G 6  21185785.197                3       2622.656          32.000  
G 3  18137381.558    95312580.973       -1296.419          52.000  
G 1  20076978.420   105505232.8893      -3532.093          43.000  
G 4  20160986.857   105946701.7472       2745.770          44.000  
G23  19252046.154   101170186.328        1441.195          49.000  
G11  21141078.830                2      -4370.046          41.000  
G14  22284868.956                3      -3814.695          27.000  
G19  19624156.268                2       -166.300          44.000  
G31  21263458.166                3       -860.938          39.000  
G 9  20842872.525   109530033.7633       3042.503          47.000  
> 2019 11 25  9  9 51.9930000  0 18                     
R17  17678560.401    94601520.1022       1143.812          48.000  
R 1  17442661.620    93240979.949       -2323.499          50.000  
R 8  20500896.785                3      -4368.311          39.000  
R23  20679662.467                3      -5088.721          30.000  
R 2  18418303.348                3       2125.612          41.000  
G17  19692951.609                2      -1273.309          48.000  
R18  21352318.345                3       3570.882          29.000  
R 9  21181525.402   113108082.775       -1228.174          42.000  
G22  19365496.502   101766364.5642      -2427.029          48.000  
G 6  21185282.452                3       2626.855          42.000  
G 3  18137628.387    95313878.672       -1298.321          52.000  
G 1  20077651.362   105508762.5112      -3529.831          44.000  
G 4  20160464.642   105943956.2452       2744.681          47.000  
G23  19251772.103   101168746.770        1438.750          49.000  
G11  21141912.134                3      -4372.733          45.000  
G19  19624189.951                3       -169.241          39.000  
G31  21263620.083                3       -879.053          36.000  
G 9  20842294.182   109526994.8682       3038.484          49.000  
> 2019 11 25  9  9 52.9930000  0 17                     
R17  17678346.915    94600378.4073       1141.447          52.000  
R 1  17443096.296    93243303.320       -2322.803          50.000  
R 8  20501715.309                3      -4366.016          37.000  
R23  20680608.723                3      -5067.481          30.000  
R 2  18417905.618                3       2127.341          51.000  
G17  19693194.482                3      -1275.450          43.000  
R18  21351650.211                3       3598.899          30.000  
R 9  21181755.339   113109310.411       -1228.165          46.000  
G22  19365956.608   101768791.4972      -2423.065          45.000  
G 6  21184781.705                3       2609.473          35.000  
G 3  18137875.591    95315176.794       -1297.632          52.000  
G 1  20078322.135   105512292.6602      -3529.860          50.000  
G 4  20159942.252   105941211.3432       2745.134          47.000  
G23  19251498.387   101167307.877        1439.380          48.000  
G11  21142741.355                2      -4368.186          36.000  
G19  19624220.232   103125973.1702       -170.434          45.000  
G 9  20841715.925   109523955.3962       3039.981          41.000  
> 2019 11 25  9  9 53.9930000  0 18                     
R17  17678133.629    94599237.4452       1140.647          50.000  
R 1  17443531.238    93245627.769       -2325.656          50.000  
R 8  20502531.953                2      -4374.368          39.000  
R23  20681524.035                3      -5007.279          30.000  
R 2  18417507.941    98279272.3422       2125.114          47.000  
G17  19693436.944   103489709.2732      -1279.056          46.000  
R18  21350979.655                3       3624.511          32.000  
R 9  21181985.268   113110539.496       -1229.559          42.000  
G22  19366419.292   101771219.2062      -2428.445          48.000  
G 6  21184284.465                3       2628.369          35.000  
G 3  18138122.782    95316475.802       -1300.021          52.000  
G 1  20078996.691   105515823.4032      -3532.015          36.000  
G 4  20159419.902   105938467.0082       2744.029          45.000  
G23  19251224.759   101165869.711        1437.832          49.000  
G11  21143575.472                3      -4379.492          39.000  
G19  19624252.920   103126143.8442       -171.576          46.000  
G31  21263947.850                3       -864.127          34.000  
G 9  20841137.267                3       3039.056          44.000  
> 2019 11 25  9  9 54.9930000  0 18                     
R17  17677920.300                3       1137.354          39.000  
R 1  17443965.854    93247952.837       -2325.288          49.000  
R 8  20503350.255                3      -4363.868          36.000  
R23  20682445.454                3      -4955.780          34.000  
R 2  18417109.988    98277153.0703       2124.084          48.000  
G17  19693680.104                3      -1275.985          48.000  
R18  21350311.421                3       3612.756          28.000  
R 9  21182215.549   113111769.892       -1230.380          44.000  
G22  19366880.200                3      -2434.326          39.000  
G 3  18138369.846    95317775.232       -1299.176          52.000  
G 1  20079666.308                3      -3530.217          48.000  
G 4  20158897.809   105935722.745        2745.797          44.000  
G23  19250951.197   101164431.862        1438.209          49.000  
G11  21144407.262                3      -4376.123          33.000  
G14  22287774.479                3      -3823.208          27.000  
G19  19624285.343                3       -170.087          39.000  
G31  21264110.552                3       -863.561          36.000  
G 9  20840559.054   109517876.2792       3040.832          41.000  
> 2019 11 25  9  9 55.9930000  0 19                     
R17  17677707.098                2       1140.494          48.000  
R 1  17444400.979    93250278.180       -2325.418          50.000  
R 8  20504166.197                3      -4366.650          36.000  
R23  20683358.306                2      -4955.448          34.000  
R 2  18416711.242    98275026.4712       2125.258          49.000  
G17  19693921.977                3      -1278.369          46.000  
R18  21349641.019                3       3626.865          29.000  
R 9  21182446.215   113113001.600       -1232.207          47.000  
G22  19367344.869   101776084.1792      -2428.530          47.000  
G 3  18138617.238    95319074.577       -1299.092          52.000  
G 1  20080338.499   105522890.6572      -3532.646          46.000  
G 4  20158375.262   105932977.761        2745.246          47.000  
G23  19250677.660   101162993.531        1438.695          49.000  
G11  21145236.876                3      -4375.537          34.000  
G14  22288501.655                3      -3812.497          26.000  
G19  19624316.566                3       -190.967          37.000  
G 6  21183282.068                3       2612.842          35.000  
G31  21264281.049                3       -872.998          30.000  
G 9  20839980.497   109514836.3843       3039.676          46.000  
> 2019 11 25  9  9 56.9930000  0 18                     
R17  17677494.079    94595813.8752       1139.757          51.000  
R 1  17444836.410    93252603.627       -2325.531          49.000  
R 8  20504980.022                3      -4297.999          34.000  
R23  20684276.388                3      -4952.491          35.000  
R 2  18416312.675    98272898.0563       2128.131          49.000  
G17  19694163.667                3      -1276.562          43.000  
R 9  21182677.234   113114234.416       -1232.707          46.000  
G22  19367805.205   101778512.1372      -2424.989          45.000  
G 3  18138864.333    95320373.791       -1298.839          52.000  
G 1  20081010.507                3      -3529.199          44.000  
G 4  20157852.715   105930232.255        2745.200          47.000  
G23  19250403.827   101161554.774        1438.767          49.000  
G11  21146074.801                3      -4387.451          32.000  
G14  22289226.507                3      -3815.580          26.000  
G19  19624350.764                3       -167.969          44.000  
G 6  21182787.354                3       2625.537          41.000  
G31  21264442.154                2       -864.493          37.000  
G 9  20839404.282                3       3039.258          40.000  
> 2019 11 25  9  9 57.9930000  0 18                     
R17  17677281.304    94594673.9352       1138.763          46.000  
R 1  17445271.326    93254928.582       -2325.286          50.000  
R 8  20505785.202                3      -4379.228          34.000  
R23  20685206.319                3      -4951.312          27.000  
R 2  18415914.304                3       2135.059          40.000  
G17  19694407.804                2      -1274.662          44.000  
R18  21348296.532                3       3624.442          29.000  
R 9  21182907.948   113115467.894       -1233.934          44.000  
G22  19368264.975                3      -2425.513          43.000  
G 3  18139111.420    95321672.349       -1298.873          52.000  
G 1  20081682.175   105529951.8722      -3530.538          45.000  
G 4  20157330.112   105927486.430        2745.920          47.000  
G23  19250129.928   101160115.544        1439.124          49.000  
G11  21146906.919                3      -4363.086          29.000  
G19  19624383.295                2       -173.909          39.000  
G 6  21182282.737                2       2627.606          39.000  
G31  21264614.156                3       -855.029          37.000  
G 9  20838824.289   109508760.5982       3042.313          44.000  
> 2019 11 25  9  9 58.9930000  0 17                     
R17  17677069.759                3       1123.389          50.000  
R 1  17445706.487    93257254.563       -2326.036          50.000  
R 8  20506610.614                3      -4365.527          41.000  
R23  20686129.230                3      -4967.538          32.000  
R 2  18415516.090                3       2122.900          46.000  
G17  19694651.549                3      -1275.386          38.000  
R 9  21183138.749   113116702.213       -1234.789          45.000  
G22  19368731.773   101783371.9072      -2425.900          47.000  
G 3  18139358.951    95322971.861       -1299.677          52.000  
G 1  20082354.248                3      -3534.766          39.000  
G 4  20156807.731   105924741.401        2744.880          46.000  
G23  19249856.257   101158677.353        1438.062          49.000  
G11  21147738.195                3      -4384.116          29.000  
G14  22290676.140                3      -3816.354          25.000  
G19  19624419.535                3       -174.170          37.000  
G 6  21181786.117                3       2631.006          37.000  
G 9  20838245.386   109505720.6492       3038.304          47.000  
> 2019 11 25  9  9 59.9930000  0 17                     
R17  17676853.106                2       1138.625          42.000  
R 1  17446141.486    93259580.395       -2325.725          50.000  
R 8  20507429.243                3      -4376.562          47.000  
R23  20687052.813                3      -4942.701          32.000  
R 2  18415117.963                2       2123.226          46.000  
G17  19694894.329                2      -1275.771          46.000  
R 9  21183370.038   113117936.854       -1235.087          42.000  
G22  19369190.282   101785799.6432      -2427.076          42.000  
G 3  18139605.963    95324271.158       -1298.981          52.000  
G 1  20083028.978                3      -3527.636          38.000  
G 4  20156285.463   105921996.550        2744.610          47.000  
G23  19249582.580   101157239.283        1438.032          49.000  
G14  22291401.982                3      -3830.335          26.000  
G19  19624450.335                3       -180.127          38.000  
G 6  21181283.835                3       2625.586          28.000  
G31  21264935.602                2       -862.983          39.000  
G 9  20837666.755   109502680.5792       3040.590          49.000  
> 2019 11 25  9 10  0.9930000  0 18                     
R17  17676641.736    94591252.9322       1137.427          52.000  
R 1  17446576.716    93261906.440       -2326.054          50.000  
R 8  20508248.435                3      -4372.070          39.000  
R23  20687982.330                3      -4955.647          32.000  
R 2  18414719.400    98264396.1662       2124.508          47.000  
G17  19695138.008   103498646.0962      -1281.363          42.000  
R 9  21183601.393   113119171.664       -1233.713          46.000  
G22  19369654.614   101788227.0042      -2427.123          49.000  
G 3  18139853.521    95325570.690       -1299.710          52.000  
G 1  20083699.463                3      -3531.239          33.000  
G 4  20155763.457   105919252.313        2745.157          45.000  
G23  19249308.843   101155801.796        1437.096          48.000  
G11  21149397.431                3      -4370.502          36.000  
G14  22292131.069                2      -3817.647          28.000  
G19  19624481.623                3       -180.029          42.000  
G 6  21180783.838                3       2642.804          29.000  
G31  21265102.234                3       -864.404          35.000  
G 9  20837087.543   109499641.4372       3039.227          42.000  
> 2019 11 25  9 10  1.9930000  0 18                     
R17  17676433.210    94590116.3262       1137.144          48.000  
R 1  17447011.671    93264233.081       -2327.441          49.000  
R 8  20509067.108                3      -4361.816          34.000  
R23  20688906.485                3      -4963.440          33.000  
R 2  18414321.055                3       2121.658          49.000  
G17  19695381.927                3      -1282.715          42.000  
R18  21345605.385                3       3625.745          28.000  
R 9  21183832.661   113120406.740       -1235.307          47.000  
G22  19370115.008                3      -2425.238          43.000  
G 3  18140100.864    95326870.813       -1300.739          52.000  
G 1  20084368.867                3      -3531.592          44.000  
G 4  20155241.312   105916508.933        2741.769          46.000  
G23  19249035.634   101154365.189        1435.817          49.000  
G11  21150234.370                3      -4376.123          36.000  
G14  22292857.142                3      -3813.696          27.000  
G19  19624517.457                2       -174.018          38.000  
G31  21265268.365                3       -846.338          33.000  
G 9  20836510.988                3       3037.714          40.000  
> 2019 11 25  9 10  2.9930000  0 18                     
R17  17676218.420    94588980.6942       1136.530          50.000  
R 1  17447447.050    93266560.858       -2328.910          50.000  
R 8  20509882.648                2      -4377.412          42.000  
R23  20689834.841                3      -5016.643          28.000  
R 2  18413923.278                3       2121.138          45.000  
G17  19695624.490                3      -1280.072          41.000  
R18  21344932.714                3       3612.713          27.000  
R 9  21184064.095   113121642.969       -1237.297          44.000  
G22  19370576.461                2      -2429.540          45.000  
G 3  18140348.282    95328172.078       -1302.193          52.000  
G 1  20085040.255   105547598.5882      -3534.876          49.000  
G 4  20154719.564   105913766.801        2741.326          45.000  
G23  19248762.582   101152930.058        1433.771          48.000  
G11  21151063.151                3      -4372.070          33.000  
G19  19624547.079                3       -175.635          39.000  
G 6  21179784.508                3       2607.422          34.000  
G31  21265434.888                3       -874.951          37.000  
G 9  20835930.619   109493566.2172       3038.438          46.000  
> 2019 11 25  9 10  3.9930000  0 17                     
R17  17676006.823                3       1134.538          49.000  
R 1  17447882.821    93268889.394       -2329.314          50.000  
R 8  20510698.162                3      -4374.219          36.000  
R23  20690758.969                3      -4959.780          34.000  
R 2  18413525.849    98258027.2552       2118.952          46.000  
G17  19695868.383                3      -1277.832          38.000  
R18  21344260.288                3       3596.578          29.000  
R 9  21184296.082   113122879.938       -1237.413          45.000  
G22  19371040.812   101795499.5262      -2429.962          44.000  
G 3  18140596.084    95329474.065       -1302.567          52.000  
G 1  20085712.473                3      -3534.131          39.000  
G 4  20154197.789   105911025.693        2740.969          46.000  
G23  19248489.665   101151495.989        1433.267          49.000  
G11  21151894.143                3      -4373.047          36.000  
G19  19624581.434                2       -176.917          46.000  
G31  21265597.245                3       -872.949          39.000  
G 9  20835353.087                3       3034.375          36.000  
> 2019 11 25  9 10  4.9930000  0 17                     
R17  17675794.423    94586718.7132       1133.558          52.000  
R 1  17448317.955    93271218.418       -2329.635          49.000  
R 8  20511517.428                3      -4371.777          39.000  
R23  20691680.528                3      -4947.039          33.000  
R 2  18413128.411    98255906.4252       2121.716          47.000  
G17  19696112.612                2      -1280.679          44.000  
R 9  21184527.900   113124117.401       -1237.841          47.000  
G22  19371502.497                3      -2428.563          44.000  
G 3  18140844.026    95330776.551       -1302.988          52.000  
G 1  20086386.321                2      -3535.958          48.000  
G 4  20153676.355   105908285.558        2740.016          46.000  
G23  19248216.857   101150062.832        1432.706          49.000  
G11  21152727.408                3      -4369.141          37.000  
G19  19624617.111                2       -177.250          38.000  
G 6  21178785.295                3       2620.481          29.000  
G31  21265763.048                3       -861.572          35.000  
G 9  20834776.689   109487490.2952       3034.259          46.000  
> 2019 11 25  9 10  5.9930000  0 17                     
R17  17675583.188    94585585.5712       1131.106          45.000  
R 1  17448753.753    93273548.058       -2329.243          48.000  
R 8  20512331.140                2      -4368.019          39.000  
R23  20692616.314                3      -4972.459          30.000  
R 2  18412731.122                3       2120.838          48.000  
G17  19696353.054   103505033.2722      -1282.445          49.000  
R 9  21184759.617   113125355.381       -1237.722          44.000  
G22  19371965.281   101800364.6183      -2429.213          44.000  
G 3  18141091.858    95332079.605       -1302.607          52.000  
G 1  20087060.646                3      -3535.986          37.000  
G 4  20153154.920   105905546.173        2739.879          45.000  
G23  19247944.214   101148630.568        1432.685          48.000  
G11  21153559.156                3      -4382.129          32.000  
G19  19624650.668                3       -177.295          44.000  
G 6  21178288.339                3       2608.887          34.000  
G31  21265927.808                3       -862.402          41.000  
G 9  20834199.248                3       3038.379          45.000  
> 2019 11 25  9 10  6.9930000  0 18                     
R17  17675371.923    94584453.3412       1130.334          46.000  
R 1  17449189.520    93275877.701       -2329.591          49.000  
R 8  20513149.957                3      -4374.781          37.000  
R23  20693540.002                3      -4956.441          30.000  
R 2  18412334.597                2       2116.950          49.000  
G17  19696599.564                3      -1284.600          46.000  
R18  21342244.748                3       3605.668          28.000  
R 9  21184991.521   113126593.769       -1239.521          41.000  
G22  19372427.729   101802794.6482      -2430.038          43.000  
G 3  18141339.856    95333382.652       -1302.976          52.000  
G 1  20087730.813                3      -3535.498          42.000  
G 4  20152633.831   105902807.320        2739.704          46.000  
G23  19247671.812   101147198.680        1432.159          48.000  
G14  22296489.711                2      -3811.798          25.000  
G19  19624686.480                3       -176.562          39.000  
G 6  21177786.335                2       2617.710          34.000  
G31  21266093.420                3       -868.755          33.000  
G 9  20833621.140                2       3032.829          43.000  
> 2019 11 25  9 10  7.9930000  0 17                     
R17  17675160.234    94583321.7012       1131.935          51.000  
R 1  17449625.374    93278207.456       -2330.024          49.000  
R 8  20513969.969                3      -4350.073          29.000  
R23  20694465.160                3      -4967.383          34.000  
R 2  18411937.242                3       2114.160          42.000  
G17  19696843.963   103507613.1912      -1283.267          48.000  
R 9  21185223.387   113127832.431       -1238.941          45.000  
G22  19372889.767   101805224.4352      -2430.333          49.000  
G 3  18141587.802    95334685.788       -1303.319          52.000  
G 1  20088404.134                2      -3533.375          40.000  
G 4  20152112.798   105900068.983        2738.103          47.000  
G23  19247399.248   101145767.277        1430.867          50.000  
G11  21155230.071                2      -4372.062          40.000  
G19  19624719.469   103128595.9422       -181.636          39.000  
G 6  21177283.935                3       2618.164          33.000  
G31  21266265.064                3       -855.602          30.000  
G 9  20833044.637                2       3033.872          41.000  
> 2019 11 25  9 10  8.9930000  0 18                     
R17  17674948.707    94582193.9003       1131.540          49.000  
R 1  17450061.311    93280537.114       -2329.331          49.000  
R 8  20514782.028                3      -4370.799          39.000  
R23  20695393.546                3      -5018.124          32.000  
R 2  18411543.055                3       2113.428          44.000  
G17  19697088.541                3      -1285.742          40.000  
R 9  21185455.313   113129070.992       -1237.054          44.000  
G22  19373352.791                3      -2429.840          43.000  
G 3  18141835.783    95335988.828       -1302.517          53.000  
G 1  20089077.839   105568816.4983      -3535.642          48.000  
G 4  20151591.791   105897331.216        2738.672          47.000  
G23  19247127.112   101144336.374        1430.715          49.000  
G11  21156057.721                2      -4376.664          42.000  
G14  22297938.096                3      -3779.744          24.000  
G19  19624753.750                3       -178.926          40.000  
G 6  21176782.961                3       2629.688          40.000  
G31  21266421.183                3       -873.535          38.000  
G 9  20832466.463   109475349.6352       3032.540          42.000  
> 2019 11 25  9 10  9.9930000  0 18                     
R17  17674737.529                2       1133.911          48.000  
R 1  17450496.938    93282865.845       -2328.520          49.000  
R 8  20515603.383                3      -4358.594          35.000  
R23  20696324.533                3      -4966.627          29.000  
R 2  18411144.029                3       2114.453          44.000  
G17  19697332.875                3      -1285.449          43.000  
R18  21340214.237                3       3586.860          32.000  
R 9  21185686.856                3      -1234.717          41.000  
G22  19373813.957   101810078.5432      -2430.045          48.000  
G 3  18142083.776    95337291.514       -1303.268          52.000  
G 1  20089750.052   105572353.7312      -3539.355          46.000  
G 4  20151071.321   105894595.803        2732.792          48.000  
G23  19246855.181   101142907.181        1427.207          48.000  
G11  21156887.815                2      -4381.083          38.000  
G19  19624787.499                3       -172.461          37.000  
G 6  21176280.770                3       2631.738          37.000  
G31  21266590.494                3       -881.738          34.000  
G 9  20831889.974   109472319.8583       3028.411          47.000  
> 2019 11 25  9 10 10.9930000  0 18                     
R17  17674525.457    94579928.3193       1135.876          52.000  
R 1  17450932.875    93285193.548       -2328.116          49.000  
R 8  20516414.723                3      -4362.158          40.000  
R23  20697260.598                3      -4971.524          29.000  
R 2  18410746.688    98243196.9312       2114.326          46.000  
G17  19697577.728   103511469.4662      -1280.156          42.000  
R18  21339544.275                3       3604.340          31.000  
R 9  21185917.705   113131548.5252      -1233.372          43.000  
G22  19374277.587   101812508.5202      -2431.750          41.000  
G 3  18142331.713    95338594.018       -1303.223          52.000  
G 1  20090423.403                3      -3544.580          45.000  
G 4  20150551.522   105891864.065        2730.344          47.000  
G23  19246583.621   101141480.924        1425.139          49.000  
G11  21157725.181                3      -4384.635          39.000  
G19  19624821.196                3       -173.779          42.000  
G 6  21175784.337                3       2622.363          31.000  
G31  21266756.860                3       -868.555          34.000  
G 9  20831314.108   109469292.4742       3027.267          48.000  
> 2019 11 25  9 10 11.9930000  0 17                     
R17  17674312.782    94578791.5822       1139.742          50.000  
R 1  17451368.563    93287522.654       -2329.821          49.000  
R 8  20517229.901                3      -4370.752          40.000  
R23  20698185.834                3      -4971.690          33.000  
R 2  18410348.810    98241077.4312       2119.736          46.000  
G17  19697820.901   103512746.7832      -1278.636          41.000  
R18  21338871.778                3       3617.969          33.000  
R 9  21186148.920   113132782.0762      -1235.006          46.000  
G22  19374740.245   101814941.9502      -2435.299          48.000  
G 3  18142579.537    95339897.780       -1304.042          52.000  
G 1  20091098.029   105579431.9082      -3546.088          46.000  
G 4  20150031.768   105889132.373        2731.751          46.000  
G23  19246312.606   101140055.819        1424.941          49.000  
G11  21158558.643                3      -4391.748          33.000  
G19  19624853.352                2       -170.166          47.000  
G31  21266921.559                3       -871.143          32.000  
G 9  20830737.810   109466264.2232       3029.438          48.000  
> 2019 11 25  9 10 12.9930000  0 18                     
R17  17674099.680                3       1141.797          46.000  
R 1  17451804.491    93289853.690       -2332.035          50.000  
R 8  20518048.477                3      -4376.922          34.000  
R23  20699116.385                3      -4982.796          32.000  
G 6  21174778.703                3       2651.221          42.000  
R 2  18409951.346                3       2128.167          46.000  
G17  19698063.389   103514021.2292      -1270.489          44.000  
R18  21338199.626                3       3629.297          32.000  
R 9  21186380.087   113134017.4412      -1236.703          45.000  
G22  19375203.369   101817380.4592      -2442.172          44.000  
G 3  18142827.766    95341202.967       -1306.143          52.000  
G 1  20091774.076                3      -3551.025          39.000  
G 4  20149511.459   105886399.192        2733.869          47.000  
G23  19246041.700   101138630.981        1423.929          49.000  
G11  21159397.313                3      -4389.844          32.000  
G19  19624887.048                3       -166.596          43.000  
G31  21267087.602                3       -883.767          41.000  
G 9  20830160.893   109463233.4242       3032.343          47.000  
> 2019 11 25  9 10 13.9930000  0 18                     
R17  17673885.705                2       1146.442          45.000  
R 1  17452241.074    93292187.385       -2334.586          49.000  
R 8  20518866.496   109877560.1122      -4386.365          44.000  
R23  20700046.193                3      -4983.397          33.000  
G 6  21174275.753                3       2658.057          36.000  
R 2  18409552.391    98236822.4092       2132.832          40.000  
G17  19698304.608                3      -1264.648          42.000  
R18  21337525.075                3       3619.873          34.000  
R 9  21186611.883   113135254.3562      -1238.991          40.000  
G22  19375669.011   101819825.5152      -2449.370          46.000  
G 3  18143076.798    95342510.637       -1308.692          52.000  
G 1  20092451.424                2      -3566.865          42.000  
G 4  20148991.565   105883666.588        2732.145          46.000  
G23  19245771.139   101137208.308        1422.021          50.000  
G11  21160231.329                3      -4405.615          37.000  
G19  19624917.778                2       -157.446          44.000  
G31  21267252.468                2       -887.853          38.000  
G 9  20829583.927   109460201.9172       3031.756          48.000  
> 2019 11 25  9 10 14.9930000  0 17                     
R17  17673671.757                3       1155.420          38.000  
R 1  17452677.875    93294522.551       -2335.227          49.000  
R 8  20519686.342   109881950.5642      -4387.365          46.000  
R23  20700978.070                3      -4987.765          32.000  
R 2  18409152.353                3       2132.123          49.000  
G17  19698545.722                3      -1270.752          46.000  
R18  21336850.284                3       3639.746          31.000  
R 9  21186842.776                3      -1238.058          38.000  
G22  19376134.779   101822272.1612      -2447.440          45.000  
G 3  18143325.900    95343819.270       -1308.613          52.000  
G 1  20093128.854                3      -3561.182          40.000  
G 4  20148471.557   105880933.386        2733.751          46.000  
G23  19245500.386   101135785.730        1423.312          49.000  
G14  22302300.092                3      -3825.255          32.000  
G19  19624947.958                3       -168.164          38.000  
G31  21267426.817                3       -879.431          35.000  
G 9  20829006.923   109457169.3632       3032.957          48.000  
> 2019 11 25  9 10 15.9930000  0 18                     
R17  17673457.604                3       1147.461          42.000  
R 1  17453114.689    93296858.885       -2336.933          49.000  
R 8  20520504.443                3      -4382.422          32.000  
R23  20701908.476                3      -4980.833          36.000  
R 2  18408752.774                3       2131.416          47.000  
G17  19698787.028                3      -1268.311          44.000  
R18  21336181.640                3       3601.692          31.000  
R 9  21187076.456                3      -1236.963          38.000  
G22  19376601.668   101824728.7193      -2447.650          46.000  
G 3  18143574.924    95345128.573       -1309.447          52.000  
G 1  20093806.198                3      -3553.564          42.000  
G 4  20147951.226   105878199.142        2734.111          46.000  
G23  19245229.419   101134362.743        1422.844          50.000  
G11  21161902.506                3      -4392.627          34.000  
G14  22303026.449                3      -3832.812          36.000  
G19  19624976.167                3       -167.090          39.000  
G31  21267594.514                3       -886.572          39.000  
G 9  20828429.670   109454135.5902       3033.517          47.000  
> 2019 11 25  9 10 16.9930000  0 17                     
R17  17673243.472    94573068.3682       1142.919          48.000  
R 1  17453551.934    93299196.099       -2337.459          49.000  
R 8  20521328.582                3      -4385.498          40.000  
R23  20702838.411                3      -4996.904          32.000  
R 2  18408351.680    98230416.8202       2132.531          45.000  
G17  19699028.050                2      -1265.351          40.000  
R 9  21187319.071                3      -1210.645          35.000  
G22  19377067.079   101827177.1252      -2449.659          48.000  
G 3  18143824.274    95346438.357       -1310.318          52.000  
G 1  20094485.098                2      -3557.260          41.000  
G 4  20147430.695   105875463.968        2734.961          46.000  
G23  19244958.373   101132939.318        1423.350          49.000  
G11  21162740.426                3      -4402.881          34.000  
G14  22303761.085                3      -3794.369          29.000  
G19  19625009.200                3       -156.642          35.000  
G31  21267767.947                3       -872.021          38.000  
G 9  20827852.037   109451100.6792       3034.727          47.000  
> 2019 11 25  9 10 17.9930000  0 18                     
R17  17673029.890    94571925.9742       1144.723          49.000  
R 1  17453989.525    93301534.454       -2338.576          49.000  
R 8  20522149.758                3      -4387.706          34.000  
R23  20703772.251                3      -4984.302          32.000  
R 2  18407954.356    98228283.9832       2132.572          50.000  
G17  19699269.090   103520357.6142      -1266.624          47.000  
R18  21334824.955                3       3609.593          30.000  
R 9  21187550.604                3      -1237.183          28.000  
G22  19377531.551   101829626.4202      -2448.993          47.000  
G 3  18144073.529    95347749.008       -1310.484          52.000  
G 1  20095161.037                3      -3559.131          42.000  
G 4  20146910.482   105872728.936        2734.851          46.000  
G23  19244687.847   101131516.438        1422.664          50.000  
G11  21163578.316                3      -4401.952          34.000  
G14  22304488.511                3      -3830.371          28.000  
G19  19625038.996                3       -166.172          36.000  
G31  21267936.983                2       -902.680          34.000  
G 9  20827274.653   109448065.6842       3035.394          47.000  
> 2019 11 25  9 10 18.9930000  0 17                     
R17  17672816.138    94570782.0612       1145.296          49.000  
R 1  17454427.102    93303873.210       -2338.821          49.000  
R 8  20522962.520                3      -4390.017          27.000  
R23  20704706.933                2      -5003.199          32.000  
R 2  18407555.061    98226151.8032       2131.753          45.000  
G17  19699510.265   103521624.9102      -1267.577          47.000  
R18  21334146.866                3       3618.858          30.000  
R 9  21187778.386                3      -1245.392          38.000  
G22  19377998.227   101832076.0202      -2448.853          46.000  
G 3  18144322.918    95349060.057       -1311.471          53.000  
G 1  20095838.563                3      -3564.160          44.000  
G 4  20146390.138   105869994.308        2734.510          46.000  
G23  19244417.185   101130094.097        1422.313          50.000  
G11  21164420.350                3      -4445.459          28.000  
G19  19625069.119                2       -161.508          47.000  
G31  21268111.882                3       -882.666          30.000  
G 9  20826697.208   109445030.5681       3034.317          48.000  
> 2019 11 25  9 10 19.9930000  0 16                     
R17  17672602.748                3       1140.071          45.000  
R 1  17454864.540    93306212.173       -2340.052          49.000  
R 8  20523781.079                3      -4387.779          36.000  
R23  20705636.366                3      -5009.913          36.000  
R 2  18407154.146    98224020.4542       2131.067          48.000  
G17  19699751.942                3      -1268.115          46.000  
R18  21333473.536                3       3583.273          29.000  
R 9  21188008.398                3      -1231.836          32.000  
G22  19378465.762   101834525.4122      -2450.428          48.000  
G 3  18144572.439    95350371.230       -1312.120          52.000  
G 1  20096516.247                2      -3566.881          40.000  
G 4  20145869.620   105867260.355        2733.489          45.000  
G23  19244146.423   101128672.300        1420.737          49.000  
G19  19625101.224                3       -169.092          36.000  
G31  21268277.616                3       -904.590          38.000  
G 9  20826119.736   109441996.545        3033.054          48.000  
> 2019 11 25  9 10 20.9930000  0 17                     
R17  17672389.615    94568499.0812       1141.039          48.000  
R 1  17455302.370    93308551.643       -2339.362          50.000  
R 8  20524605.275                3      -4388.330          41.000  
R23  20706567.955                3      -4992.432          33.000  
R 2  18406758.353    98221914.4433       2127.179          43.000  
G17  19699994.103                2      -1276.542          41.000  
R18  21332795.250                3       3636.003          28.000  
R 9  21188244.342                3      -1187.451          31.000  
G22  19378930.208   101836975.0692      -2449.280          47.000  
G 3  18144822.466    95351682.971       -1311.380          53.000  
G 1  20097194.716                2      -3562.464          45.000  
G 4  20145349.652   105864527.210        2733.236          47.000  
G23  19243876.337   101127251.367        1421.012          50.000  
G14  22306672.916                2      -3830.521          28.000  
G19  19625129.262                2       -161.633          41.000  
G31  21268450.015                3       -861.621          34.000  
G 9  20825542.640   109438963.315        3033.783          48.000  
> 2019 11 25  9 10 21.9930000  0 17                     
R17  17672176.505    94567358.7462       1142.809          50.000  
R 1  17455740.388    93310891.426       -2340.416          49.000  
R 8  20525425.487                3      -4377.735          36.000  
R23  20707491.931                3      -4988.038          46.000  
R 2  18406357.683    98219784.5272       2130.868          48.000  
G17  19700235.261                3      -1268.750          47.000  
R18  21332119.037                3       3632.143          32.000  
R 9  21188479.999                3      -1226.651          29.000  
G22  19379397.158   101839424.7342      -2449.894          48.000  
G 3  18145071.939    95352995.012       -1312.524          52.000  
G 1  20097870.776                3      -3580.176          38.000  
G 4  20144829.666   105861794.666        2732.114          44.000  
G23  19243606.042   101125830.982        1420.311          51.000  
G14  22307402.863                2      -3831.783          29.000  
G19  19625162.029                3       -164.853          41.000  
G31  21268620.098                3       -891.846          34.000  
G 9  20824965.574   109435930.579        3032.221          47.000  
> 2019 11 25  9 10 22.9930000  0 17                     
R17  17671963.555    94566219.1473       1139.584          51.000  
R 1  17456178.031    93313231.669       -2341.678          49.000  
R 8  20526244.374   109917068.8462      -4390.409          42.000  
R23  20708421.447                3      -4988.282          39.000  
G 6  21169722.878                3       2652.006          40.000  
R 2  18405957.633    98217641.7923       2128.578          52.000  
G17  19700476.859   103526704.4652      -1271.389          46.000  
R 9  21188708.998                3      -1208.720          29.000  
G22  19379863.384   101841874.5652      -2449.216          43.000  
G 3  18145321.773    95354307.219       -1313.671          52.000  
G 1  20098551.409                2      -3564.071          45.000  
G 4  20144309.344   105859061.515        2732.949          47.000  
G23  19243335.616   101124410.390        1419.883          50.000  
G11  21167761.565                3      -4401.758          38.000  
G14  22308129.739                2      -3822.387          29.000  
G31  21268789.509                2       -896.921          39.000  
G 9  20824388.374   109432897.198        3032.989          48.000  
> 2019 11 25  9 10 23.9930000  0 19                     
R17  17671750.567    94565081.0332       1135.760          49.000  
R 1  17456616.118    93315573.437       -2342.673          50.000  
R 8  20527062.400                3      -4389.881          36.000  
R23  20709360.099                3      -4980.274          37.000  
G 6  21169223.487                3       2657.318          40.000  
R 2  18405558.856    98215513.4423       2129.863          48.000  
G17  19700718.627                3      -1271.191          44.000  
R18  21330768.748                3       3609.965          33.000  
R 9  21188940.554                3      -1246.909          33.000  
G22  19380329.641   101844324.3062      -2449.852          46.000  
G 3  18145571.630    95355620.603       -1314.106          52.000  
G 1  20099228.700                3      -3559.515          46.000  
G 4  20143789.271   105856328.262        2732.809          46.000  
G23  19243065.173   101122990.176        1419.587          49.000  
G11  21168595.554                3      -4383.887          34.000  
G14  22308862.430                3      -3832.936          30.000  
G19  19625223.807   103131246.6432       -166.015          41.000  
G31  21268960.237                3       -899.023          36.000  
G 9  20823810.981   109429863.406        3033.894          47.000  
> 2019 11 25  9 10 24.9930000  0 19                     
R17  17671538.045    94563942.7533       1136.796          51.000  
R 1  17457054.394    93317916.622       -2344.280          49.000  
R 8  20527880.672                2      -4388.651          43.000  
R23  20710289.371                3      -4987.696          35.000  
G 6  21168718.827                3       2653.906          35.000  
R 2  18405159.438    98213382.0832       2130.584          52.000  
G17  19700958.293                3      -1266.681          42.000  
R18  21330085.698                3       3593.997          29.000  
R 9  21189178.753                3      -1245.020          35.000  
G22  19380796.277   101846775.9191      -2453.262          48.000  
G 3  18145821.897    95356935.054       -1315.178          52.000  
G 1  20099907.173                3      -3566.736          45.000  
G 4  20143269.250   105853594.758        2732.509          45.000  
G23  19242795.096   101121570.299        1419.342          50.000  
G11  21169435.036                3      -4374.756          30.000  
G14  22309588.564                3      -3833.275          31.000  
G19  19625255.440                3       -167.480          40.000  
G31  21269130.569                3       -902.637          42.000  
G 9  20823233.492   109426829.232        3034.274          47.000  
> 2019 11 25  9 10 25.9930000  0 18                     
R17  17671325.440    94562805.9702       1135.486          52.000  
R 1  17457492.974    93320261.058       -2345.778          49.000  
R 8  20528702.298                3      -4393.963          42.000  
R23  20711218.804                3      -4977.735          33.000  
G 6  21168215.803                3       2649.312          38.000  
R 2  18404760.242    98211251.9842       2129.146          50.000  
G17  19701200.977                3      -1272.900          44.000  
R 9  21189415.060                3      -1254.025          35.000  
G22  19381263.053   101849229.197       -2454.104          48.000  
G 3  18146072.041    95358250.416       -1316.400          52.000  
G 1  20100586.275                3      -3564.583          42.000  
G 4  20142748.863   105850860.570        2734.347          44.000  
G23  19242525.102   101120150.439        1418.829          50.000  
G11  21170267.080                3      -4397.359          36.000  
G14  22310320.125                3      -3824.848          27.000  
G19  19625287.042   103131579.2652       -165.387          45.000  
G31  21269302.929                3       -899.121          37.000  
G 9  20822655.820   109423793.989        3034.868          46.000  
> 2019 11 25  9 10 26.9930000  0 18                     
R17  17671113.411                3       1134.621          49.000  
R 1  17457931.935    93322607.133       -2346.313          49.000  
R 8  20529526.188                3      -4394.141          40.000  
R23  20712156.871                3      -5078.321          31.000  
G 6  21167706.876                3       2656.934          38.000  
R 2  18404361.261    98209121.8682       2130.556          49.000  
G17  19701441.934   103531775.6392      -1270.763          50.000  
R 9  21189653.888                3      -1223.849          34.000  
G22  19381730.169   101851683.789       -2456.016          46.000  
G 3  18146322.596    95359566.919       -1316.617          52.000  
G 1  20101266.580                3      -3562.842          40.000  
G 4  20142228.344   105848125.745        2736.540          46.000  
G23  19242254.859   101118730.568        1420.598          50.000  
G11  21171110.628                3      -4402.490          30.000  
G14  22311049.470                2      -3825.392          32.000  
G19  19625319.530                3       -171.709          40.000  
G31  21269473.963                3       -905.810          43.000  
G 9  20822078.235   109420757.881        3036.513          46.000  
> 2019 11 25  9 10 27.9930000  0 18                     
R17  17670901.483    94560536.0222       1135.248          46.000  
R 1  17458371.100    93324953.977       -2346.932          49.000  
R 8  20530342.326                3      -4395.312          39.000  
R23  20713107.310                3      -5102.355          23.000  
G 6  21167205.125                3       2659.131          35.000  
R 2  18403962.174    98206991.9012       2129.990          52.000  
G17  19701685.094   103533047.0332      -1271.223          49.000  
R 9  21189886.835                3      -1260.542          37.000  
G22  19382196.753   101854130.4603      -2453.433          45.000  
G 3  18146572.984    95360883.871       -1316.771          52.000  
G 1  20101941.001                3      -3564.307          41.000  
G 4  20141707.774   105845390.822        2734.985          46.000  
G23  19241984.529   101117310.766        1420.004          50.000  
G11  21171947.637                3      -4408.203          32.000  
G14  22311779.744                3      -3838.954          32.000  
G19  19625350.722                3       -159.912          38.000  
G31  21269646.515                2       -907.090          38.000  
G 9  20821500.288   109417721.516        3036.694          48.000  
> 2019 11 25  9 10 28.9930000  0 19                     
R17  17670689.628    94559402.2113       1134.369          52.000  
R 1  17458810.322    93327301.329       -2347.002          49.000  
R 8  20531161.662                3      -4360.596          31.000  
R23  20714034.589                3      -4973.278          31.000  
G 6  21166703.881                3       2654.187          37.000  
R 2  18403563.127    98204862.8332       2119.982          41.000  
G17  19701927.574   103534318.6872      -1265.064          43.000  
R18  21327390.093                3       3583.806          27.000  
R 9  21190123.543                3      -1251.855          40.000  
G22  19382662.809   101856585.5472      -2454.810          48.000  
G 3  18146823.714    95362201.131       -1316.641          52.000  
G 1  20102619.552                2      -3566.329          41.000  
G 4  20141187.391   105842655.793        2735.448          45.000  
G23  19241714.286   101115891.088        1420.411          50.000  
G11  21172781.386                3      -4399.140          33.000  
G14  22312510.158                3      -3837.301          27.000  
G19  19625382.133   103132079.0732       -169.657          42.000  
G31  21269826.139                3       -898.437          35.000  
G 9  20820922.616   109414685.122        3036.173          48.000  
> 2019 11 25  9 10 29.9930000  0 15                     
R17  17670477.865    94558269.3002       1136.216          48.000  
R 1  17459249.409    93329648.895       -2348.150          50.000  
R 8  20531983.353                3      -4373.975          38.000  
R23  20714957.369                3      -4980.592          31.000  
R 2  18403163.949                3       2129.635          44.000  
G17  19702170.067                3      -1273.486          40.000  
R 9  21190362.585                3      -1174.707          30.000  
G22  19383131.836   101859040.6122      -2454.940          48.000  
G 3  18147074.508    95363518.446       -1317.437          52.000  
G 1  20103299.535                3      -3562.500          44.000  
G 4  20140666.833   105839920.660        2736.001          46.000  
G23  19241444.257   101114471.431        1419.335          50.000  
G11  21173619.459                3      -4408.963          32.000  
G19  19625413.177                3       -168.896          39.000  
G 9  20820344.752   109411648.449        3036.585          47.000  
> 2019 11 25  9 10 30.9930000  0 18                     
R17  17670266.251    94557136.3672       1133.945          47.000  
R 1  17459688.212    93331996.916       -2347.874          49.000  
R 8  20532806.035                2      -4395.935          42.000  
R23  20715876.778                3      -4985.401          33.000  
G 6  21165685.465                3       2651.904          44.000  
R 2  18402764.814    98200603.8642       2130.205          52.000  
G17  19702411.813   103536872.7622      -1272.150          50.000  
R 9  21190590.999                3      -1162.365          28.000  
G22  19383598.813   101861496.0642      -2455.374          44.000  
G 3  18147325.058    95364836.085       -1317.298          52.000  
G 1  20103976.381                2      -3561.526          43.000  
G 4  20140146.573   105837185.784        2735.485          46.000  
G23  19241174.254   101113052.124        1419.571          50.000  
G11  21174454.875                3      -4366.871          30.000  
G14  22313973.420                3      -3818.615          34.000  
G19  19625445.678                2       -166.595          46.000  
G31  21270166.588                3       -912.723          33.000  
G 9  20819766.801   109408611.934        3036.577          47.000  
> 2019 11 25  9 10 31.9930000  0 19                     
R17  17670054.536    94556003.7122       1131.778          53.000  
R 1  17460127.848    93334344.928       -2348.391          50.000  
R 8  20533626.828                3      -4402.197          46.000  
R23  20716808.262                3      -4988.526          38.000  
G 6  21165181.293                3       2651.854          36.000  
R 2  18402365.536    98198474.4152       2128.918          52.000  
G17  19702654.332   103538145.1102      -1272.572          45.000  
R18  21325365.096                3       3578.569          28.000  
R 9  21190827.371                2      -1239.873          39.000  
G22  19384067.142   101863951.2052      -2455.054          45.000  
G 3  18147575.992    95366153.601       -1317.758          52.000  
G 1  20104654.588                3      -3563.623          40.000  
G 4  20139626.015   105834450.773        2735.269          46.000  
G23  19240904.155   101111632.755        1418.884          50.000  
G11  21175289.362                2      -4394.992          39.000  
G14  22314701.639                2      -3840.829          36.000  
G19  19625477.119   103132581.3982       -170.398          46.000  
G31  21270339.381                3       -886.914          40.000  
G 9  20819188.924   109405575.204        3037.314          47.000  
> 2019 11 25  9 10 32.9930000  0 18                     
R17  17669843.450    94554872.9422       1129.764          52.000  
R 1  17460567.332    93336694.439       -2349.784          49.000  
R 8  20534449.130                2      -4397.675          37.000  
R23  20717730.331                3      -4984.229          35.000  
G 6  21164683.883                3       2646.777          38.000  
R 2  18401966.454    98196344.2873       2127.451          53.000  
G17  19702896.449   103539418.8802      -1274.870          50.000  
R 9  21191067.338                3      -1240.723          29.000  
G22  19384533.848   101866412.5143      -2460.944          41.000  
G 3  18147826.905    95367472.527       -1319.635          52.000  
G 1  20105332.769                3      -3562.598          40.000  
G 4  20139105.750   105831716.547        2734.882          46.000  
G23  19240634.087   101110214.555        1417.538          49.000  
G11  21176129.075                2      -4393.358          36.000  
G14  22315430.814                2      -3841.645          34.000  
G19  19625510.405   103132751.6932       -171.917          43.000  
G31  21270517.949                3       -879.102          34.000  
G 9  20818611.182   109402539.179        3035.839          47.000  
> 2019 11 25  9 10 33.9930000  0 16                     
R17  17669632.538    94553743.4782       1128.844          51.000  
R 1  17461006.982    93339045.707       -2351.545          49.000  
R 8  20535270.403                3      -4387.939          35.000  
R23  20718659.943                3      -4981.250          38.000  
R 2  18401567.904                3       2126.445          50.000  
G17  19703138.837   103540693.4862      -1275.812          40.000  
R 9  21191307.313                3      -1119.482          31.000  
G22  19385000.567   101868870.1712      -2458.569          42.000  
G 3  18148078.144    95368793.031       -1320.837          52.000  
G 1  20106011.499                3      -3572.412          42.000  
G 4  20138585.481   105828983.061        2734.020          46.000  
G23  19240364.677   101108797.639        1417.098          50.000  
G11  21176963.174                3      -4398.193          31.000  
G19  19625543.085   103132922.7102       -171.288          45.000  
G31  21270687.722                3       -909.277          40.000  
G 9  20818033.759   109399503.515        3036.157          47.000  
> 2019 11 25  9 10 34.9930000  0 17                     
R17  17669421.346                3       1129.102          49.000  
R 1  17461447.128    93341397.899       -2352.792          50.000  
R 8  20536088.726                3      -4387.256          35.000  
R23  20719594.198                3      -4980.665          37.000  
R 2  18401169.363    98192090.0442       2127.294          53.000  
G17  19703381.291   103541968.3542      -1276.294          48.000  
R18  21323341.652                3       3572.333          29.000  
R 9  21191535.388                3      -1179.763          25.000  
G22  19385469.193                3      -2456.787          38.000  
G 3  18148329.401    95370114.182       -1321.185          53.000  
G 1  20106690.378                3      -3567.627          38.000  
G 4  20138065.643   105826249.179        2735.059          42.000  
G23  19240095.233   101107380.791        1417.152          50.000  
G11  21177799.279                3      -4374.507          34.000  
G19  19625575.743                3       -179.053          37.000  
G31  21270864.340                3       -903.809          32.000  
G 9  20817455.882   109396467.343        3036.355          46.000  
> 2019 11 25  9 10 35.9930000  0 17                     
R17  17669210.836    94551489.0912       1126.446          52.000  
R 1  17461887.493    93343750.745       -2353.710          49.000  
R 8  20536911.984                3      -4368.491          29.000  
R23  20720529.625                3      -4993.653          34.000  
R 2  18400770.569                3       2125.098          51.000  
G17  19703624.136   103543243.9522      -1275.444          43.000  
R 9  21191776.842                3      -1271.826          38.000  
G22  19385937.142   101873787.1292      -2459.711          44.000  
G 3  18148580.981    95371435.730       -1321.625          51.000  
G 1  20107368.206                2      -3565.887          45.000  
G 4  20137545.269   105823515.160        2734.564          45.000  
G23  19239825.304   101105963.904        1417.520          49.000  
G11  21178634.185                2      -4393.905          28.000  
G14  22317631.893                3      -3839.201          27.000  
G19  19625609.099                2       -173.210          47.000  
G31  21271040.666                3       -873.340          30.000  
G 9  20816877.983   109393430.910        3036.287          48.000  
> 2019 11 25  9 10 36.9930000  0 18                     
R17  17669000.033    94550361.0533       1125.952          52.000  
R 1  17462327.719    93346104.908       -2355.167          49.000  
R 8  20537733.409                3      -4378.800          33.000  
R23  20721462.719                3      -4998.047          36.000  
G 6  21162664.012                2       2649.811          45.000  
R 2  18400372.071    98187836.2032       2125.316          50.000  
G17  19703866.965   103544520.6192      -1275.961          42.000  
R18  21321988.160                3       3599.971          30.000  
R 9  21192012.739                2      -1253.586          39.000  
G22  19386402.880                3      -2460.602          43.000  
G 3  18148832.395    95372758.377       -1323.222          52.000  
G 1  20108048.380                3      -3574.707          38.000  
G 4  20137025.060   105820781.742        2733.076          46.000  
G23  19239556.074   101104547.985        1415.408          50.000  
G11  21179471.093                3      -4393.274          33.000  
G19  19625641.783   103133445.2442       -175.428          47.000  
G31  21271210.906                3       -925.781          38.000  
G 9  20816300.119   109390394.937        3035.429          48.000  
> 2019 11 25  9 10 37.9930000  0 16                     
R17  17668789.862    94549235.8562       1124.479          49.000  
R 1  17462767.826    93348459.622       -2355.302          49.000  
R 8  20538554.477                3      -4393.213          36.000  
R23  20722394.661                3      -5002.442          33.000  
R 2  18399973.901    98185710.5692       2125.093          53.000  
G17  19704110.204   103545797.7032      -1277.471          50.000  
R 9  21192253.028                3      -1276.172          39.000  
G22  19386871.213   101878695.3592      -2460.272          40.000  
G 3  18149084.311    95374081.554       -1323.779          52.000  
G 1  20108725.820                3      -3562.109          39.000  
G 4  20136504.974   105818048.815        2733.182          46.000  
G23  19239286.690   101103132.674        1415.088          50.000  
G11  21180309.366                2      -4395.728          34.000  
G19  19625675.384                3       -173.288          38.000  
G31  21271385.477                2       -921.743          33.000  
G 9  20815722.534   109387359.410        3035.575          47.000  
> 2019 11 25  9 10 38.9930000  0 18                     
R17  17668579.578    94548111.7182       1123.772          52.000  
R 1  17463208.536    93350814.877       -2355.105          50.000  
R 8  20539381.168                3      -4395.099          30.000  
R23  20723326.332                3      -4975.489          37.000  
G 6  21161648.584                3       2649.170          41.000  
R 2  18399575.940    98183586.4702       2122.240          52.000  
G17  19704353.486   103547076.2432      -1278.438          49.000  
R18  21320634.311                3       3589.831          29.000  
R 9  21192494.508                3      -1251.758          33.000  
G22  19387341.204   101881155.3582      -2459.933          45.000  
G 3  18149336.331    95375405.368       -1323.733          52.000  
G 1  20109407.011                2      -3566.541          41.000  
G 4  20135985.071   105815317.271        2730.472          46.000  
G23  19239017.516   101101718.651        1413.463          50.000  
G11  21181142.265                3      -4397.607          33.000  
G19  19625709.071                2       -176.062          42.000  
G31  21271559.199                3       -915.186          35.000  
G 9  20815145.259   109384325.141        3033.630          48.000  
> 2019 11 25  9 10 39.9930000  0 16                     
R17  17668369.434    94546987.8932       1123.444          51.000  
R 1  17463649.407    93353169.954       -2355.574          50.000  
R 8  20540199.526   109991797.3352      -4394.845          39.000  
R23  20724257.044                3      -4984.864          38.000  
R 2  18399178.275    98181463.1842       2123.199          53.000  
G17  19704596.820   103548355.7172      -1278.978          47.000  
R 9  21192730.453                3      -1228.564          29.000  
G22  19387808.983   101883615.2122      -2460.103          47.000  
G 3  18149588.469    95376729.269       -1324.418          52.000  
G 1  20110082.941   105679198.7652      -3568.470          47.000  
G 4  20135465.565   105812587.179        2729.490          38.000  
G23  19238748.652   101100305.844        1412.109          50.000  
G11  21181981.433                2      -4399.053          41.000  
G19  19625742.868                3       -187.256          35.000  
G31  21271734.656                3       -925.146          37.000  
G 9  20814568.272   109381292.374        3034.285          46.000  
> 2019 11 25  9 10 40.9930000  0 16                     
R17  17668159.621    94545865.2362       1122.773          52.000  
R 1  17464090.117    93355525.981       -2356.325          48.000  
R 8  20541018.718                3      -4366.895          37.000  
R23  20725190.251                3      -5008.437          26.000  
R 2  18398780.349    98179341.2232       2121.774          52.000  
G17  19704840.430   103549636.3622      -1280.727          50.000  
R 9  21192967.689                3      -1224.014          32.000  
G22  19388278.996                3      -2461.230          38.000  
G 3  18149840.555    95378054.115       -1323.745          51.000  
G 1  20110762.299                3      -3568.164          45.000  
G 4  20134946.360   105809857.2383       2729.722          45.000  
G23  19238480.316   101098894.363        1411.337          50.000  
G11  21182817.953   111316458.7283      -4396.458          40.000  
G14  22321283.691                2      -3839.442          26.000  
G19  19625776.682   103134151.6052       -177.883          48.000  
G 9  20813991.333   109378260.686        3031.083          48.000  
> 2019 11 25  9 10 41.9930000  0 17                     
R17  17667950.088    94544744.5752       1119.645          51.000  
R 1  17464531.031    93357883.289       -2358.041          49.000  
R 8  20541838.263                3      -4385.254          38.000  
R23  20726121.260                3      -4984.591          35.000  
G 6  21160133.019                2       2647.317          35.000  
R 2  18398382.833                3       2126.660          42.000  
G17  19705084.414                3      -1283.328          44.000  
R 9  21193201.077                3      -1274.280          39.000  
G22  19388745.414   101888544.2812      -2462.034          47.000  
G 3  18150092.724    95379380.187       -1326.515          52.000  
G31  21272095.025                3       -920.022          33.000  
G 1  20111443.586   105686338.7902      -3571.793          41.000  
G 4  20134427.063   105807128.9342       2728.717          46.000  
G23  19238211.975   101097483.765        1410.399          50.000  
G11  21183655.564                3      -4395.627          37.000  
G19  19625810.793                3       -179.688          38.000  
G 9  20813414.407   109375229.434        3031.262          48.000  
> 2019 11 25  9 10 42.9930000  0 18                     
R17  17667741.078    94543625.1672       1120.662          42.000  
R 1  17464972.496    93360241.849       -2358.991          49.000  
R 8  20542662.001                2      -4397.406          43.000  
R23  20727050.353                3      -4994.901          33.000  
G 6  21159634.937                3       2642.529          39.000  
R 2  18397985.344                2       2119.338          50.000  
G17  19705329.337                3      -1288.184          44.000  
R18  21317927.674                3       3608.559          29.000  
R 9  21193440.934                3      -1261.914          35.000  
G22  19389214.057   101891006.4732      -2462.686          48.000  
G 3  18150345.202    95380707.270       -1327.044          52.000  
G31  21272255.244                2       -917.619          38.000  
G 1  20112120.712   105689908.5762      -3570.470          43.000  
G 4  20133907.876   105804400.6842       2728.905          46.000  
G23  19237943.468   101096073.705        1410.386          50.000  
G11  21184493.510                3      -4402.246          36.000  
G19  19625845.266                2       -184.064          46.000  
G 9  20812837.621   109372198.041        3031.299          48.000  
> 2019 11 25  9 10 43.9930000  0 19                     
R17  17667531.789    94542506.1822       1118.384          51.000  
R 1  17465413.711    93362600.990       -2358.922          49.000  
R 8  20543484.024                3      -4400.244          37.000  
R23  20727977.452                3      -4988.624          36.000  
G 6  21159132.271                2       2649.642          42.000  
R 2  18397588.120    98172979.6452       2119.671          51.000  
G17  19705572.846   103553483.7222      -1282.950          48.000  
R18  21317252.341                3       3601.848          33.000  
R 9  21193680.722                3      -1250.939          30.000  
G22  19389682.212   101893469.0792      -2463.032          47.000  
G 3  18150597.929    95382034.692       -1327.420          53.000  
G31  21272433.690                3       -905.664          31.000  
G 1  20112801.266   105693478.7142      -3570.834          38.000  
G 4  20133388.496   105801672.1462       2728.770          46.000  
G23  19237675.145   101094663.639        1410.404          50.000  
G11  21185327.408                2      -4398.992          41.000  
G14  22323477.371                3      -3843.439          31.000  
G19  19625879.272   103134691.4952       -180.091          45.000  
G 9  20812260.642   109369166.174        3032.377          49.000  
> 2019 11 25  9 10 44.9930000  0 16                     
R17  17667323.006    94541386.4103       1118.475          52.000  
R 1  17465854.984    93364960.325       -2359.953          49.000  
R 8  20544305.318                3      -4391.602          36.000  
R23  20728915.799                3      -4996.680          35.000  
G 6  21158627.837   111189339.6252       2647.630          44.000  
R 2  18397190.927    98170861.1513       2121.239          45.000  
G17  19705816.735                3      -1286.328          46.000  
R 9  21193920.767                3      -1272.964          30.000  
G22  19390151.954   101895931.6902      -2463.674          46.000  
G 3  18150850.495    95383362.017       -1328.161          52.000  
G 1  20113480.511                3      -3568.799          47.000  
G 4  20132869.387   105798943.3262       2728.670          47.000  
G23  19237406.551   101093253.391        1409.838          50.000  
G11  21186166.109                3      -4387.549          34.000  
G19  19625913.269   103134872.3012       -180.798          48.000  
G 9  20811683.690   109366134.074        3031.829          48.000  
> 2019 11 25  9 10 45.9930000  0 18                     
R17  17667113.786    94540266.9853       1119.484          52.000  
R 1  17466296.025    93367319.795       -2359.694          49.000  
R 8  20545128.563                3      -4399.463          39.000  
R23  20729841.035                3      -4974.952          33.000  
G 6  21158123.120   111186691.2252       2646.614          42.000  
R 2  18396793.590    98168740.4112       2120.756          51.000  
G17  19706060.649   103556047.5172      -1282.598          50.000  
R18  21315902.859                3       3594.841          36.000  
R 9  21194160.616                3      -1260.493          29.000  
G22  19390620.528   101898394.6522      -2461.265          43.000  
G 3  18151102.982    95384689.380       -1327.020          52.000  
G31  21272783.807                3       -920.752          36.000  
G 1  20114158.688                3      -3570.557          42.000  
G 4  20132350.147   105796214.6642       2729.378          46.000  
G23  19237138.302   101091843.367        1410.857          50.000  
G11  21186998.606                3      -4408.740          32.000  
G19  19625947.598   103135050.5463       -181.970          41.000  
G 9  20811106.677   109363101.935        3032.245          49.000  
> 2019 11 25  9 10 46.9930000  0 18                     
R17  17666904.855    94539149.4082       1116.268          49.000  
R 1  17466737.738    93369680.174       -2360.946          50.000  
R 8  20545947.449                3      -4395.068          37.000  
R23  20730776.585                3      -4988.477          36.000  
G 6  21157621.065                3       2647.949          38.000  
R 2  18396396.575    98166621.6613       2119.197          46.000  
G17  19706305.131   103557331.2582      -1287.090          47.000  
R18  21315223.828                3       3619.812          34.000  
R 9  21194398.004                3      -1276.611          34.000  
G22  19391089.101   101900857.9932      -2464.128          48.000  
G 3  18151355.696    95386017.577       -1328.400          52.000  
G 1  20114841.449                3      -3575.098          39.000  
G 4  20131831.042   105793486.8712       2728.006          46.000  
G23  19236870.345   101090434.319        1409.283          50.000  
G11  21187837.203                3      -4386.031          31.000  
G14  22325676.042                3      -3823.080          25.000  
G19  19625982.041                2       -184.621          44.000  
G 9  20810529.925   109360070.622        3031.217          48.000  
> 2019 11 25  9 10 47.9930000  0 18                     
R17  17666696.530                3       1115.490          49.000  
R 1  17467179.302    93372040.774       -2360.342          50.000  
R 8  20546768.700                2      -4393.355          39.000  
R23  20731708.920                3      -4998.633          36.000  
G 6  21157116.282                2       2647.427          45.000  
R 2  18395999.321    98164502.3303       2117.776          48.000  
G17  19706551.022                3      -1284.277          46.000  
R18  21314543.186                3       3602.441          43.000  
R 9  21194634.350                2      -1277.905          40.000  
G22  19391557.927   101903321.2712      -2463.264          47.000  
G 3  18151608.650    95387345.921       -1328.020          52.000  
G31  21273133.566                2       -912.896          34.000  
G 1  20115519.146                2      -3571.366          44.000  
G 4  20131312.151   105790759.5562       2727.685          46.000  
G23  19236602.205   101089025.662        1409.126          50.000  
G11  21188675.450                3      -4399.326          32.000  
G19  19626017.098                2       -186.045          45.000  
G 9  20809953.117   109357039.775        3031.079          48.000  
> 2019 11 25  9 10 48.9930000  0 17                     
R17  17666487.960    94536919.1142       1114.091          47.000  
R 1  17467621.177    93374401.930       -2361.293          49.000  
R 8  20547590.261                3      -4397.915          41.000  
R23  20732639.466                3      -5019.678          35.000  
G 6  21156613.166                3       2646.729          36.000  
R 2  18395602.246    98162383.4792       2117.151          52.000  
G17  19706793.140                3      -1284.082          49.000  
R18  21313869.826                3       3603.760          36.000  
R 9  21194878.487                3      -1274.609          40.000  
G22  19392026.701   101905784.2641      -2463.472          47.000  
G 3  18151861.443    95388674.806       -1328.794          53.000  
G 1  20116196.537                3      -3576.971          35.000  
G 4  20130793.483   105788033.214        2725.513          46.000  
G23  19236334.161   101087617.967        1407.251          49.000  
G11  21189513.244                3      -4400.830          40.000  
G19  19626052.047                3       -183.105          45.000  
G 9  20809376.505   109354009.926        3028.895          48.000  
> 2019 11 25  9 10 49.9930000  0 19                     
R17  17666278.117    94535803.5012       1116.531          50.000  
R 1  17468062.576    93376762.272       -2358.884          49.000  
R 8  20548411.948                3      -4396.582          41.000  
R23  20733590.267                3      -5081.250          31.000  
G 6  21156109.439   111176105.1792       2648.069          46.000  
R 2  18395205.799                3       2108.105          39.000  
G17  19707041.731                3      -1278.125          36.000  
R18  21313191.715                3       3606.738          38.000  
R 9  21195110.606                3      -1249.609          32.000  
G22  19392495.231   101908247.204       -2461.492          47.000  
G 3  18152114.445    95390003.527       -1328.184          52.000  
G31  21273486.444                3       -908.105          34.000  
G 1  20116877.671                3      -3573.096          39.000  
G 4  20130275.011   105785309.439        2722.370          46.000  
G23  19236066.663   101086212.163        1404.974          50.000  
G11  21190351.648                2      -4404.708          41.000  
G14  22327868.142                2      -3839.474          31.000  
G19  19626086.960   103135784.2242       -187.458          44.000  
G 9  20808800.539   109350982.660        3025.454          48.000  
> 2019 11 25  9 10 50.9930000  0 19                     
R17  17666068.614                3       1119.650          43.000  
R 1  17468503.852    93379120.297       -2356.667          49.000  
R 8  20549222.375                3      -4361.895          27.000  
R23  20734538.638                3      -5081.397          31.000  
G 6  21155602.083                3       2647.900          38.000  
R 2  18394810.665                2       2113.245          48.000  
G17  19707286.244                3      -1292.139          45.000  
R18  21312513.054                3       3609.472          40.000  
R 9  21195350.895                3      -1239.893          35.000  
G22  19392963.695   101910708.142       -2460.364          47.000  
G 3  18152367.063    95391330.895       -1326.382          53.000  
G31  21273663.464                3       -908.545          34.000  
G 1  20117557.650   105718478.3052      -3572.062          46.000  
G 4  20129757.472   105782589.445        2718.228          46.000  
G23  19235799.744   101084808.685        1402.058          50.000  
G11  21191186.480                3      -4418.555          32.000  
G14  22328598.168                2      -3824.159          30.000  
G19  19626122.354                3       -181.982          38.000  
G 9  20808225.227   109347959.583        3020.948          48.000  
> 2019 11 25  9 10 51.9930000  0 18                     
R17  17665863.679    94533577.5942       1118.858          51.000  
R 1  17468944.213    93381475.758       -2353.645          49.000  
R 8  20550049.969                2      -4386.235          40.000  
R23  20735490.713                3      -5116.651          32.000  
G 6  21155105.424                3       2653.711          41.000  
R 2  18394414.903    98156049.2192       2109.912          51.000  
G17  19707529.931                2      -1292.183          43.000  
R18  21311840.414                3       3617.676          35.000  
R 9  21195589.204                3      -1193.604          33.000  
G22  19393431.496   101913167.642       -2459.706          48.000  
G 3  18152619.354    95392657.161       -1325.737          52.000  
G31  21273835.863                3       -913.477          34.000  
G 1  20118238.535                3      -3579.343          42.000  
G 4  20129240.614   105779874.732        2711.159          46.000  
G23  19235533.323   101083408.784        1397.354          50.000  
G14  22329329.965                3      -3829.202          30.000  
G19  19626157.555                2       -183.090          47.000  
G 9  20807651.141   109344942.096        3012.598          49.000  
> 2019 11 25  9 10 52.9930000  0 18                     
R17  17665651.833    94532443.8242       1124.738          52.000  
R 1  17469384.373    93383828.622       -2352.606          49.000  
R 8  20550871.918                3      -4380.322          41.000  
R23  20736429.173                3      -4986.143          30.000  
R 2  18394019.319    98153936.8743       2109.815          53.000  
G17  19707775.757   103565058.5912      -1288.678          49.000  
R18  21311162.468                3       3627.636          32.000  
R 9  21195819.521                3      -1230.221          28.000  
G22  19393899.973   101915628.271       -2462.751          49.000  
G 3  18152871.593    95393982.873       -1326.188          52.000  
G31  21274009.388                2       -915.476          37.000  
G 1  20118920.961   105725641.1382      -3590.259          45.000  
G 4  20128725.575   105777167.685        2703.186          43.000  
G23  19235268.023   101082014.868        1390.948          49.000  
G11  21192872.350                2      -4427.159          30.000  
G14  22330055.204   117345231.8542      -3825.576          36.000  
G19  19626191.928   103136333.8583       -177.953          45.000  
G 9  20807078.229   109341932.145        3005.973          45.000  
> 2019 11 25  9 10 53.9930000  0 18                     
R17  17665441.218                3       1133.643          42.000  
R 1  17469824.467    93386181.055       -2352.909          49.000  
R 8  20551691.293   110053335.6132      -4387.314          46.000  
R23  20737343.377                2      -5020.613          34.000  
G 6  21154079.678                3       2668.049          35.000  
R 2  18393623.531    98151824.9392       2114.164          53.000  
G17  19708019.903   103566344.1462      -1282.942          50.000  
R18  21310485.518                3       3638.867          35.000  
R 9  21196056.704                2      -1249.190          34.000  
G22  19394368.987   101918093.686       -2468.571          49.000  
G 3  18153124.036    95395309.623       -1327.595          52.000  
G31  21274183.066   111796588.8782       -918.416          46.000  
G 1  20119604.264   105729236.9932      -3601.843          47.000  
G23  19235003.853   101080626.474        1386.442          48.000  
G11  21193713.956                2      -4440.272          40.000  
G14  22330780.654   117349059.0692      -3829.594          40.000  
G19  19626224.926   103136506.3662       -168.038          44.000  
G 9  20806506.525                3       2995.302          38.000  
> 2019 11 25  9 10 54.9930000  0 19                     
R17  17665228.949    94530181.5412       1137.949          52.000  
R 1  17470264.688    93388533.879       -2352.418          49.000  
R 8  20552511.458   110057727.9493      -4389.635          49.000  
R23  20738260.713                3      -5049.219          37.000  
G 6  21153573.683                2       2688.680          44.000  
R 2  18393226.783    98149708.7432       2118.609          52.000  
G17  19708264.036   103567623.5452      -1276.875          50.000  
R18  21309794.022                3       3661.957          37.000  
R 9  21196294.965                3      -1218.137          30.000  
G22  19394839.179   101920564.653       -2472.328          48.000  
G 3  18153376.637    95396637.709       -1327.951          52.000  
G31  21274356.552   111797509.4142       -922.576          47.000  
G 1  20120291.069   105732843.3272      -3609.010          45.000  
G 4  20127698.626                3       2693.801          37.000  
G23  19234740.551   101079242.383        1383.322          49.000  
G11  21194558.394                3      -4458.691          31.000  
G14  22331510.417   117352887.7962      -3829.584          38.000  
G19  19626255.787   103136669.9863       -160.978          45.000  
G 9  20805936.295                2       3004.522          43.000  
> 2019 11 25  9 10 55.9930000  0 19                     
R17  17665016.318    94529042.2872       1139.642          52.000  
R 1  17470704.661    93390886.351       -2353.035          49.000  
R 8  20553333.372   110062117.7792      -4389.816          46.000  
R23  20739192.716                3      -5081.299          33.000  
G 6  21153062.797   111160088.1742       2693.383          45.000  
R 2  18392829.193    98147589.5752       2118.086          52.000  
G17  19708506.515   103568898.8452      -1275.695          50.000  
R18  21309110.140                3       3659.961          40.000  
R 9  21196532.881                3      -1240.651          34.000  
G22  19395309.994   101923038.534       -2475.403          48.000  
G 3  18153629.661    95397965.989       -1329.308          52.000  
G31  21274533.030   111798432.6422       -924.010          47.000  
G 1  20120979.014   105736455.9442      -3615.231          43.000  
G 4  20127185.698   105769073.8633       2696.114          41.000  
G23  19234477.537   101077860.631        1378.983          48.000  
G11  21195406.370                3      -4448.877          39.000  
G14  22332240.041                3      -3827.642          32.000  
G19  19626285.897   103136827.6292       -156.627          47.000  
G 9  20805364.735                3       3006.152          37.000  
> 2019 11 25  9 10 56.9930000  0 19                     
R17  17664803.334    94527902.9972       1138.539          52.000  
R 1  17471144.664    93393239.088       -2352.943          49.000  
R 8  20554150.339   110066506.4122      -4386.985          45.000  
R23  20740145.145                3      -5050.792          33.000  
G 6  21152554.564                3       2692.016          43.000  
R 2  18392432.388    98145472.2882       2116.295          53.000  
G17  19708749.872   103570175.3822      -1277.807          50.000  
R18  21308427.286                3       3678.027          32.000  
R 9  21196757.256                2      -1241.681          42.000  
G22  19395781.168   101925513.666       -2474.894          48.000  
G 3  18153882.444    95399295.298       -1329.412          52.000  
G31  21274708.121   111799355.8702       -922.576          49.000  
G 1  20121666.692                3      -3617.926          43.000  
G 4  20126671.353   105766371.5043       2691.999          46.000  
G23  19234215.077   101076482.320        1377.613          48.000  
G11  21196255.271                2      -4449.881          33.000  
G14  22332970.233                3      -3823.651          28.000  
G19  19626316.064   103136985.3062       -158.741          47.000  
G 9  20804792.839                2       2995.247          38.000  
> 2019 11 25  9 10 57.9930000  0 18                     
R17  17664590.733    94526765.7722       1136.895          52.000  
R 1  17471585.461    93395591.986       -2352.619          49.000  
R 8  20554970.739   110070893.8512      -4385.968          48.000  
R23  20741084.529                3      -5067.942          28.000  
G 6  21152037.296   111154705.5772       2690.168          44.000  
R 2  18392036.015    98143357.2842       2113.998          52.000  
G17  19708993.019   103571454.4142      -1279.445          51.000  
R 9  21196990.684                3      -1240.381          33.000  
G22  19396251.953   101927987.959       -2473.353          48.000  
G 3  18154135.534    95400624.797       -1329.260          52.000  
G31  21274883.897   111800278.3422       -921.645          49.000  
G 1  20122355.007                2      -3616.226          41.000  
G 4  20126159.883                3       2686.621          36.000  
G23  19233953.057   101075104.754        1376.721          49.000  
G11  21197103.356                3      -4452.930          39.000  
G14  22333696.197   117364364.9552      -3825.841          41.000  
G19  19626346.441   103137145.6972       -160.951          48.000  
G 9  20804222.605                3       2993.457          34.000  
> 2019 11 25  9 10 58.9930000  0 18                     
R17  17664378.779    94525629.6292       1135.141          50.000  
R 1  17472025.511    93397944.610       -2352.333          49.000  
R 8  20555789.560   110075279.4802      -4384.688          49.000  
R23  20742022.880                3      -5040.193          32.000  
G 6  21151525.952   111152014.6202       2692.811          38.000  
R 2  18391639.991    98141244.2292       2112.988          51.000  
G17  19709236.589   103572737.2983      -1278.493          42.000  
R18  21307059.691                3       3654.746          35.000  
R 9  21197222.676                2      -1243.511          38.000  
G22  19396722.559   101930461.747       -2473.433          48.000  
G 3  18154388.645    95401954.399       -1329.696          52.000  
G31  21275059.202   111801199.5992       -920.748          48.000  
G 1  20123042.864                3      -3614.941          42.000  
G23  19233690.924   101073728.634        1375.513          46.000  
G11  21197945.826                3      -4454.403          31.000  
G14  22334424.512   117368190.2112      -3825.633          31.000  
G19  19626377.205   103137308.1713       -164.496          40.000  
G 9  20803658.348                3       2984.814          36.000  
> 2019 11 25  9 10 59.9930000  0 17                     
R17  17664166.715                3       1133.852          42.000  
R 1  17472465.423    93400297.023       -2351.212          45.000  
R 8  20556608.429   110079663.3562      -4384.213          47.000  
R23  20742965.287                3      -5049.312          33.000  
R 2  18391244.530    98139133.1332       2109.019          50.000  
G17  19709480.783                2      -1282.753          43.000  
R18  21306388.372                3       3579.191          26.000  
R 9  21197456.818                3      -1244.336          41.000  
G22  19397193.135   101932934.858       -2472.979          47.000  
G 3  18154641.721    95403284.023       -1329.997          51.000  
G31  21275234.420   111802119.7972       -920.654          47.000  
G 1  20123731.624                3      -3621.484          37.000  
G23  19233429.337   101072353.2873       1373.383          48.000  
G11  21198798.823                3      -4450.830          30.000  
G14  22335152.902   117372013.5892      -3822.570          39.000  
G19  19626405.928                2       -164.462          36.000  
G 9  20803083.394   109320940.7152       2990.908          46.000  
> 2019 11 25  9 11  0.9930000  0 19                     
R17  17663955.018                3       1136.322          47.000  
R 1  17472905.674                3      -2354.932          39.000  
R 8  20557426.765                3      -4383.740          43.000  
R23  20743917.476                3      -5083.902          33.000  
R 2  18390849.090    98137022.751        2111.147          52.000  
G17  19709725.112                3      -1282.340          46.000  
R18  21305699.865                3       3651.927          28.000  
R 9  21197690.686                3      -1264.648          34.000  
G22  19397663.758   101935407.876       -2473.611          48.000  
G 3  18154894.465    95404613.974       -1331.371          46.000  
G31  21275409.371   111803039.9882       -920.866          44.000  
G 1  20124419.533                2      -3617.435          46.000  
G 4  20124627.322   105755630.0202       2686.539          45.000  
G23  19233167.955   101070979.0452       1374.436          48.000  
G11  21199649.334                3      -4455.127          34.000  
G14  22335880.646                3      -3828.017          35.000  
G19  19626436.798                3       -156.299          35.000  
G 6  21150502.929                3       2681.396          34.000  
G 9  20802516.127                3       2989.551          40.000  
> 2019 11 25  9 11  1.9930000  0 16                     
R17  17663742.993    94522229.4492       1134.830          49.000  
R 1  17473346.004    93405005.4092      -2354.236          48.000  
R 8  20558245.089                3      -4367.236          33.000  
R23  20744856.930                3      -5074.146          32.000  
R 2  18390453.201    98134911.286        2111.318          53.000  
G17  19709969.105   103576586.7542      -1283.111          49.000  
R18  21305014.875                3       3654.833          32.000  
R 9  21197926.124                3      -1239.453          32.000  
G22  19398134.530   101937881.652       -2473.904          48.000  
G 3  18155147.651    95405944.032       -1331.102          52.000  
G31  21275584.270                3       -923.569          39.000  
G 1  20125107.931   105758154.5992      -3615.838          45.000  
G23  19232906.441   101069604.1532       1374.807          48.000  
G14  22336610.261                2      -3822.314          31.000  
G19  19626467.292                3       -162.793          39.000  
G 9  20801944.492                2       2996.129          42.000  
> 2019 11 25  9 11  2.9930000  0 17                     
R17  17663531.361    94521097.1423       1132.132          48.000  
R 1  17473787.490    93407365.0752      -2355.353          49.000  
R 8  20559061.096                3      -4375.879          35.000  
R23  20745797.868                3      -5053.788          34.000  
R 2  18390057.522    98132799.719        2110.448          53.000  
G17  19710213.308   103577869.6272      -1284.260          49.000  
R18  21304323.746                3       3672.628          27.000  
R 9  21198164.420                3      -1236.087          27.000  
G22  19398605.560   101940356.771       -2475.532          48.000  
G 3  18155401.128    95407275.279       -1331.787          52.000  
G31  21275763.676                3       -895.752          31.000  
G 1  20125798.471                3      -3616.357          39.000  
G 4  20123604.229   105750253.7632       2687.064          43.000  
G23  19232644.928   101068229.8022       1373.999          49.000  
G11  21201341.329                3      -4442.702          30.000  
G19  19626501.215                3       -164.919          40.000  
G 9  20801376.488                2       2990.080          39.000  
> 2019 11 25  9 11  3.9930000  0 16                     
R17  17663319.616    94519963.5223       1131.907          52.000  
R 1  17474225.282    93409720.0612      -2356.024          49.000  
R 8  20559875.816                3      -4291.016          32.000  
R23  20746740.110                3      -5007.843          31.000  
R 2  18389662.126    98130688.806        2110.935          52.000  
G17  19710457.389   103579153.2892      -1284.015          50.000  
R 9  21198399.758                3      -1243.360          28.000  
G22  19399076.567   101942831.714       -2475.424          48.000  
G 3  18155654.523    95408606.703       -1331.815          52.000  
G31  21275936.961   111805803.2102       -925.914          44.000  
G 1  20126487.310                3      -3614.551          41.000  
G 4  20123093.374                3       2695.752          37.000  
G23  19232383.685   101066855.7042       1373.988          49.000  
G14  22338068.257                3      -3817.112          26.000  
G19  19626533.162   103138127.4942       -166.847          44.000  
G 9  20800808.331                3       2999.658          41.000  
> 2019 11 25  9 11  4.9930000  0 16                     
R17  17663108.167                3       1140.918          39.000  
R 1  17474668.683    93412075.3542      -2355.396          49.000  
R 8  20560672.022                3      -4278.913          28.000  
R23  20747679.451                2      -5043.574          36.000  
R 2  18389266.635    98128577.818        2111.409          53.000  
G17  19710701.814   103580437.2872      -1284.791          45.000  
R 9  21198632.522                3      -1211.432          29.000  
G22  19399547.601   101945306.853       -2475.521          48.000  
G 3  18155907.647    95409938.306       -1331.711          52.000  
G31  21276111.742   111806728.3712       -925.399          48.000  
G 1  20127171.537                2      -3614.818          39.000  
G 4  20122579.425                3       2688.232          40.000  
G23  19232121.940   101065481.6632       1374.255          48.000  
G14  22338795.482                3      -3820.733          26.000  
G19  19626566.854                3       -151.904          32.000  
G 9  20800237.695                3       2991.602          38.000  
> 2019 11 25  9 11  5.9930000  0 15                     
R17  17662896.640                2       1127.712          44.000  
R 1  17475107.892    93414431.1512      -2355.479          47.000  
R 8  20561491.191                3      -4386.029          36.000  
R23  20748619.930                3      -5061.719          35.000  
G 6  21147942.576                3       2693.945          40.000  
R 2  18388870.864    98126467.214        2110.171          52.000  
G17  19710946.824                3      -1287.646          46.000  
R 9  21198863.698                3      -1224.605          30.000  
G22  19400018.700   101947782.398       -2476.127          48.000  
G 3  18156161.246    95411270.341       -1332.068          51.000  
G31  21276288.138   111807654.1072       -926.560          48.000  
G 1  20127860.446                3      -3617.771          38.000  
G23  19231860.894   101064108.4822       1370.605          45.000  
G19  19626602.091                3       -166.379          34.000  
G 9  20799668.618                3       2982.227          38.000  
> 2019 11 25  9 11  6.9930000  0 18                     
R17  17662685.397                2       1130.860          47.000  
R 1  17475551.031    93416787.2932      -2354.887          40.000  
R 8  20562330.569                2      -4382.062          38.000  
R23  20749567.014                3      -5052.295          39.000  
R 2  18388475.686    98124357.211        2108.962          53.000  
G17  19711190.900   103583006.7022      -1286.377          51.000  
R18  21301577.500                3       3677.494          32.000  
R 9  21199091.323                3      -1247.620          31.000  
G22  19400489.481   101950258.059       -2476.409          48.000  
G 3  18156414.785    95412602.694       -1332.014          52.000  
G31  21276465.759   111808580.2512       -927.023          45.000  
G 1  20128550.907                3      -3631.201          35.000  
G 4  20121559.608                2       2688.532          44.000  
G23  19231599.525   101062737.5583       1371.804          47.000  
G11  21204729.459                3      -4449.532          31.000  
G14  22340252.584                3      -3818.113          26.000  
G19  19626627.908                2       -167.972          40.000  
G 9  20799096.879                3       2994.858          38.000  
> 2019 11 25  9 11  7.9930000  0 19                     
R17  17662474.083    94515440.2062       1128.204          52.000  
R 1  17475990.183    93419144.1512      -2357.409          50.000  
R 8  20563156.008                3      -4387.362          37.000  
R23  20750511.987                3      -5052.442          34.000  
G 6  21146914.449                2       2687.554          38.000  
R 2  18388080.439    98122248.165        2108.390          52.000  
G17  19711435.696   103584292.8062      -1287.140          50.000  
R18  21300896.724                3       3661.777          28.000  
R 9  21199324.764                3      -1254.258          35.000  
G22  19400960.510   101952733.977       -2475.856          48.000  
G 3  18156668.476    95413935.733       -1333.615          52.000  
G31  21276641.426   111809506.9392       -926.438          43.000  
G 1  20129240.810                3      -3617.969          40.000  
G 4  20121047.667   105736823.2082       2684.408          46.000  
G23  19231338.522   101061365.3502       1371.233          48.000  
G11  21205585.902                3      -4431.689          30.000  
G14  22340978.203                2      -3819.183          31.000  
G19  19626659.607   103138791.9062       -170.756          44.000  
G 9  20798527.247                3       2993.701          37.000  
> 2019 11 25  9 11  8.9930000  0 18                     
R17  17662262.944    94514309.5713       1127.644          49.000  
R 1  17476431.582    93421501.3932      -2357.700          50.000  
R 8  20563983.672                3      -4399.946          31.000  
R23  20751457.130                3      -5000.489          28.000  
R 2  18387685.401    98120140.040        2107.721          53.000  
G17  19711680.130   103585579.8072      -1287.507          50.000  
R18  21300211.842                2       3654.081          32.000  
R 9  21199558.928                3      -1242.725          35.000  
G22  19401431.888   101955210.233       -2476.396          48.000  
G 3  18156922.316    95415269.162       -1333.335          52.000  
G31  21276818.790   111810434.0522       -927.115          39.000  
G 1  20129930.225                3      -3626.426          40.000  
G 4  20120537.999   105734138.4072       2685.310          45.000  
G23  19231077.462   101059994.1722       1370.923          48.000  
G11  21206427.221                3      -4461.035          32.000  
G14  22341707.928                3      -3827.846          34.000  
G19  19626692.361                3       -169.678          40.000  
G 9  20797959.177   109294012.4692       2987.023          39.000  
> 2019 11 25  9 11  9.9930000  0 17                     
R17  17662052.111    94513181.7222       1126.698          51.000  
R 1  17476872.314    93423858.9462      -2357.837          50.000  
R 8  20564798.941                2      -4383.307          40.000  
R23  20752397.658                3      -5057.569          37.000  
R 2  18387290.354    98118032.820        2107.075          52.000  
G17  19711925.092   103586867.9382      -1289.062          49.000  
R18  21299521.123                3       3648.902          31.000  
R 9  21199795.954                3      -1228.624          29.000  
G22  19401903.289   101957686.300       -2476.003          49.000  
G 3  18157176.151    95416602.858       -1333.713          52.000  
G31  21276994.418   111811360.1173       -927.277          49.000  
G 1  20130616.289                2      -3617.566          42.000  
G 4  20120026.424   105731454.1502       2685.042          40.000  
G23  19230816.621   101058623.4092       1370.284          49.000  
G14  22342435.632                3      -3823.565          30.000  
G19  19626724.923                3       -162.305          33.000  
G 9  20797393.515                3       2993.799          37.000  
> 2019 11 25  9 11 10.9930000  0 16                     
R17  17661841.652    94512054.9572       1126.510          52.000  
R 1  17477312.814    93426216.4491      -2358.554          49.000  
R 8  20565618.294   110127914.2902      -4385.985          41.000  
R23  20753350.113                3      -5038.104          29.000  
G 6  21145388.567                3       2678.680          34.000  
R 2  18386895.599    98115926.740        2105.454          53.000  
G17  19712170.599   103588157.1992      -1290.159          50.000  
R 9  21200033.827                3      -1223.585          29.000  
G22  19402374.488   101960162.595       -2476.376          48.000  
G 3  18157429.742    95417937.066       -1334.443          52.000  
G31  21277170.774   111812287.5412       -927.502          49.000  
G 1  20131306.114                3      -3615.234          41.000  
G23  19230555.749   101057253.5872       1369.365          49.000  
G14  22343158.852                3      -3828.711          30.000  
G19  19626758.091   103139309.7352       -172.085          45.000  
G 9  20796822.343                3       2998.242          39.000  
> 2019 11 25  9 11 11.9930000  0 15                     
R17  17661631.334    94510929.5652       1124.407          53.000  
R 1  17477753.964    93428574.936       -2358.910          49.000  
R 8  20566437.617                3      -4386.863          39.000  
R23  20754289.576                3      -5041.489          33.000  
R 2  18386501.163    98113821.718        2104.750          52.000  
G17  19712416.293   103589447.7292      -1291.183          50.000  
R18  21298162.475                3       3657.916          30.000  
R 9  21200272.459                3      -1241.215          28.000  
G22  19402845.906   101962638.777       -2475.977          48.000  
G 3  18157683.774    95419271.636       -1334.819          52.000  
G31  21277347.301   111813215.1532       -927.188          47.000  
G 1  20131994.799                3      -3623.291          40.000  
G23  19230295.417   101055884.2252       1369.243          49.000  
G19  19626789.240   103139482.3442       -172.928          45.000  
G 9  20796251.315                2       2990.814          42.000  
> 2019 11 25  9 11 12.9930000  0 17                     
R17  17661421.329    94509804.9812       1124.241          53.000  
R 1  17478194.888    93430933.184       -2358.635          49.000  
R 8  20567257.987                2      -4383.775          36.000  
R23  20755220.505                3      -5047.217          36.000  
R 2  18386107.033    98111717.478        2103.398          53.000  
G17  19712661.988   103590739.2042      -1292.109          50.000  
R18  21297474.758                3       3647.124          30.000  
R 9  21200501.039                3      -1237.657          29.000  
G22  19403316.896   101965114.227       -2475.295          48.000  
G 3  18157937.923    95420605.947       -1334.628          52.000  
G31  21277523.509   111814142.4242       -927.948          47.000  
G 1  20132683.389                2      -3619.163          43.000  
G23  19230034.790   101054515.0112       1367.720          46.000  
G14  22344620.487                2      -3823.482          31.000  
G19  19626823.119   103139656.0352       -173.708          44.000  
G 4  20118495.407                3       2681.540          41.000  
G 9  20795682.604                3       2989.754          42.000  
> 2019 11 25  9 11 13.9930000  0 18                     
R17  17661211.198    94508681.2372       1123.702          52.000  
R 1  17478635.889    93433291.636       -2358.156          49.000  
R 8  20568072.310   110141077.0722      -4382.459          44.000  
R23  20756164.370                3      -5039.942          35.000  
R 2  18385712.684    98109614.384        2103.246          52.000  
G17  19712907.788   103592031.8552      -1292.697          51.000  
R18  21296801.794                3       3604.106          25.000  
R 9  21200745.259                3      -1244.310          29.000  
G22  19403787.864   101967589.757       -2475.090          48.000  
G 3  18158191.828    95421940.639       -1334.727          52.000  
G31  21277700.240   111815069.4912       -927.303          49.000  
G 1  20133369.894                3      -3620.013          43.000  
G11  21210663.047                2      -4458.032          42.000  
G23  19229774.485   101053146.8502       1367.703          49.000  
G14  22345345.731   117425597.0012      -3822.374          35.000  
G19  19626856.065   103139824.6873       -174.145          46.000  
G 4  20117985.529                3       2682.422          37.000  
G 9  20795113.945                3       2984.349          41.000  
> 2019 11 25  9 11 14.9930000  0 18                     
R17  17661001.403    94507557.8932       1122.463          53.000  
R 1  17479077.380    93435649.799       -2358.524          49.000  
R 8  20568890.629   110145437.7653      -4381.391          47.000  
R23  20757108.841                3      -5078.271          33.000  
R 2  18385318.824    98107512.063        2101.723          52.000  
G17  19713154.150   103593325.3282      -1294.589          50.000  
R18  21296119.692                3       3616.954          26.000  
R 9  21200981.496                3      -1253.918          28.000  
G22  19404258.933   101970064.814       -2475.065          48.000  
G 3  18158445.908    95423275.146       -1334.969          52.000  
G31  21277876.548   111815996.1022       -926.823          49.000  
G 1  20134059.178   105805191.5832      -3618.890          44.000  
G11  21211512.393                3      -4455.762          35.000  
G23  19229514.032   101051779.3112       1366.940          49.000  
G14  22346070.456                3      -3825.709          25.000  
G19  19626889.993   103139999.9712       -175.719          47.000  
G 4  20117474.840   105718043.0772       2679.046          42.000  
G 9  20794545.801                2       2988.584          40.000  
> 2019 11 25  9 11 15.9930000  0 18                     
R17  17660791.551    94506434.8782       1122.774          52.000  
R 1  17479518.447    93438007.917       -2358.575          50.000  
R 8  20569707.574   110149818.6422      -4381.337          48.000  
R23  20758060.227                3      -5077.530          28.000  
R 2  18384925.016    98105410.089        2102.253          52.000  
G17  19713400.346   103594619.1962      -1293.501          50.000  
R18  21295436.799                3       3641.763          26.000  
R 9  21201213.252                3      -1249.501          29.000  
G22  19404729.810   101972539.594       -2474.548          48.000  
G 3  18158699.738    95424609.609       -1334.609          52.000  
G31  21278052.817   111816922.5822       -927.159          48.000  
G 1  20134747.209                3      -3621.104          45.000  
G11  21212366.333                3      -4447.705          32.000  
G23  19229254.063   101050412.0832       1367.380          49.000  
G14  22346800.237                2      -3821.158          26.000  
G19  19626923.271   103140175.9452       -177.858          39.000  
G 4  20116964.421   105715362.7522       2680.615          42.000  
G 9  20793978.237                3       2987.090          38.000  
> 2019 11 25  9 11 16.9930000  0 16                     
R17  17660581.987                3       1120.236          50.000  
R 1  17479959.938    93440367.236       -2360.537          49.000  
R 8  20570525.867   110154200.9722      -4382.976          49.000  
R23  20758994.800                3      -5068.097          30.000  
R 2  18384531.304    98103307.933        2101.887          52.000  
G17  19713646.643   103595913.2142      -1294.915          50.000  
R18  21294751.651                3       3662.871          27.000  
R 9  21201443.896                3      -1191.976          28.000  
G22  19405200.734   101975015.305       -2475.989          48.000  
G 3  18158953.687    95425944.894       -1336.316          52.000  
G31  21278229.396   111817850.9852       -929.243          49.000  
G 1  20135438.360                2      -3619.154          44.000  
G23  19228993.902   101049044.7812       1367.520          48.000  
G19  19626956.766   103140353.0073       -176.012          46.000  
G 4  20116456.157   105712681.9642       2681.969          38.000  
G 9  20793409.155                3       2985.791          40.000  
> 2019 11 25  9 11 17.9930000  0 17                     
R17  17660372.728                3       1121.729          42.000  
R 1  17480401.581    93442727.854       -2360.180          49.000  
R 8  20571346.180   110158584.1812      -4383.232          45.000  
R23  20759938.988                3      -5038.908          33.000  
R 2  18384137.322    98101206.479        2101.831          52.000  
G17  19713892.961   103597208.0062      -1294.806          50.000  
R18  21294060.793                3       3658.153          35.000  
R 9  21201673.402                3      -1168.446          28.000  
G22  19405672.126   101977492.081       -2476.829          48.000  
G 3  18159208.028    95427281.303       -1335.700          52.000  
G31  21278406.171   111818780.7292       -929.097          48.000  
G 1  20136126.623   105816058.7903      -3620.240          43.000  
G23  19228733.702   101047678.3962       1366.866          49.000  
G19  19626991.366                3       -186.768          39.000  
G 4  20115943.365   105710001.6782       2681.090          46.000  
G 6  21141814.836                3       2683.740          34.000  
G 9  20792839.780                3       2988.916          44.000  
> 2019 11 25  9 11 18.9930000  0 16                     
R17  17660163.408    94503074.4412       1119.911          53.000  
R 1  17480843.281    93445088.618       -2360.812          49.000  
R 8  20572164.438   110162968.1343      -4382.709          46.000  
R23  20760884.314                3      -5075.223          29.000  
R 2  18383743.423    98099105.531        2100.565          52.000  
G17  19714139.372   103598503.414       -1296.083          50.000  
R18  21293382.507                3       3596.026          23.000  
R 9  21201901.066                3      -1266.910          27.000  
G22  19406143.377   101979968.749       -2476.918          48.000  
G 3  18159462.396    95428617.806       -1336.545          52.000  
G31  21278583.282   111819710.3781       -930.279          47.000  
G 1  20136815.671   105819679.9573      -3620.201          46.000  
G23  19228473.938   101046311.8261       1365.629          48.000  
G19  19627024.709   103140710.3292       -178.600          47.000  
G 4  20115432.959   105707321.3262       2680.209          43.000  
G 9  20792271.204   109264122.3732       2987.378          43.000  
> 2019 11 25  9 11 19.9930000  0 16                     
R17  17659954.389    94501955.6082       1118.262          52.000  
R 1  17481285.430    93447449.542       -2361.051          49.000  
R 8  20572982.867   110167349.9962      -4379.993          43.000  
R23  20761829.688                3      -5043.358          33.000  
R 2  18383349.981    98097006.214        2098.029          53.000  
G17  19714386.388   103599800.531       -1298.330          51.000  
R 9  21202135.893                3      -1246.777          27.000  
G22  19406614.608   101982445.103       -2476.332          48.000  
G 3  18159716.864    95429954.576       -1336.830          52.000  
G31  21278760.166   111820639.937        -928.270          48.000  
G 1  20137505.434                2      -3624.571          40.000  
G23  19228214.143   101044946.743        1364.724          48.000  
G19  19627058.724   103140889.9402       -180.676          47.000  
G 4  20114925.110   105704642.8332       2677.461          43.000  
G 6  21140785.976                3       2674.902          30.000  
G 9  20791704.561   109261144.5302       2983.550          39.000  
> 2019 11 25  9 11 20.9930000  0 16                     
R17  17659745.589    94500838.1262       1116.866          53.000  
R 1  17481726.812    93449810.425       -2361.364          49.000  
R 8  20573801.212   110171730.3502      -4381.310          42.000  
R23  20762779.857                3      -5058.990          27.000  
R 2  18382957.029    98094908.765        2096.917          53.000  
G17  19714633.645   103601099.636       -1300.511          51.000  
R18  21292013.411                3       3697.408          26.000  
R 9  21202372.854                3      -1240.050          26.000  
G22  19407085.646   101984920.829       -2475.680          48.000  
G 3  18159971.366    95431291.513       -1337.315          52.000  
G31  21278937.186   111821568.635        -927.167          47.000  
G 1  20138193.187                3      -3622.314          44.000  
G23  19227954.645   101043582.748        1362.883          48.000  
G19  19627092.948   103141071.4342       -182.525          47.000  
G 4  20114415.882   105701965.5992       2676.302          44.000  
G 9  20791136.412                3       2991.321          41.000  
> 2019 11 25  9 11 21.9930000  0 17                     
R17  17659536.915    94499721.9182       1115.380          52.000  
R 1  17482168.651    93452171.229       -2360.595          49.000  
R 8  20574618.790   110176109.1142      -4377.993          49.000  
R23  20763730.183                3      -5046.951          32.000  
R 2  18382564.146    98092813.279        2094.510          52.000  
G17  19714881.185   103602400.701       -1301.887          51.000  
R18  21291327.953                3       3654.186          31.000  
R 9  21202598.350                3      -1246.491          26.000  
G22  19407557.024   101987396.188       -2475.189          48.000  
G 6  21139758.393                3       2683.154          40.000  
G 3  18160225.716    95432628.645       -1336.928          52.000  
G31  21279113.568   111822496.578        -927.073          49.000  
G 1  20138882.461                3      -3623.145          40.000  
G23  19227695.143   101042220.109        1361.914          48.000  
G19  19627127.901   103141254.5852       -181.527          42.000  
G 4  20113905.563   105699290.4412       2673.689          40.000  
G 9  20790570.951                3       2981.082          40.000  
> 2019 11 25  9 11 22.9930000  0 16                     
R17  17659328.677    94498606.5872       1115.459          48.000  
R 1  17482610.190    93454531.624       -2360.100          49.000  
R 8  20575435.896   110180486.1582      -4376.149          48.000  
R23  20764663.891                3      -5049.366          33.000  
R 2  18382171.756    98090719.406        2093.286          52.000  
G17  19715129.082   103603703.387       -1302.969          50.000  
R18  21290642.042                3       3637.589          31.000  
R 9  21202830.805                3      -1239.894          27.000  
G22  19408027.569   101989870.729       -2474.540          48.000  
G 3  18160480.258    95433965.645       -1337.071          53.000  
G31  21279289.715   111823423.307        -926.478          47.000  
G 1  20139571.291   105834160.4752      -3621.065          46.000  
G23  19227435.999   101040858.499        1361.337          44.000  
G14  22351892.568                3      -3799.572          26.000  
G19  19627163.346   103141439.2643       -186.344          40.000  
G 9  20790001.389   109252194.2803       2978.683          43.000  
> 2019 11 25  9 11 23.9930000  0 16                     
R17  17659120.444    94497492.6592       1112.867          53.000  
R 1  17483051.488    93456891.843       -2360.383          50.000  
R 8  20576253.129   110184861.7792      -4375.939          45.000  
R23  20765607.080                3      -5041.016          32.000  
R 2  18381779.732    98088627.215        2091.417          52.000  
G17  19715377.290   103605007.918       -1305.551          50.000  
R18  21289956.440                3       3653.361          33.000  
R 9  21203066.164                3      -1254.018          32.000  
G22  19408498.620   101992344.482       -2473.712          48.000  
G 3  18160734.373    95435302.616       -1336.982          52.000  
G31  21279465.805   111824349.037        -925.504          47.000  
G 1  20140260.235                3      -3622.314          39.000  
G23  19227177.133   101039497.602        1360.417          48.000  
G19  19627198.709   103141625.5452       -187.548          45.000  
G 4  20112885.742   105693927.6243       2671.953          46.000  
G 9  20789434.270   109249215.2432       2977.971          48.000  
> 2019 11 25  9 11 24.9930000  0 15                     
R17  17658912.406    94496379.4482       1113.188          53.000  
R 1  17483493.035    93459252.195       -2360.249          49.000  
R 8  20577070.161   110189236.7182      -4374.684          43.000  
R23  20766558.248                3      -5007.351          32.000  
R 2  18381387.774    98086535.691        2091.791          52.000  
G17  19715625.628   103606313.250       -1305.434          50.000  
R 9  21203306.956                3      -1255.664          42.000  
G22  19408969.161   101994818.105       -2474.102          48.000  
G 3  18160989.163    95436639.724       -1337.355          52.000  
G31  21279642.000   111825274.837        -925.662          48.000  
G 1  20140949.318   105841402.2402      -3622.485          46.000  
G23  19226918.220   101038137.238        1360.038          48.000  
G19  19627234.203   103141812.6892       -186.678          45.000  
G 4  20112379.049   105691255.5422       2670.953          44.000  
G 9  20788865.812   109246236.8052       2978.667          39.000  
> 2019 11 25  9 11 25.9930000  0 17                     
R17  17658704.448    94495266.7292       1112.529          52.000  
R 1  17483934.766    93461612.761       -2360.411          50.000  
R 8  20577887.320   110193611.5662      -4374.403          45.000  
R23  20767496.939                3      -5047.825          33.000  
G11  21220850.249                3      -4472.412          33.000  
R 2  18380995.707    98084444.318        2090.625          52.000  
G17  19715874.211   103607618.924       -1306.348          45.000  
R 9  21203545.247                3      -1259.463          32.000  
G22  19409439.715   101997291.641       -2473.425          48.000  
G 6  21137721.072                3       2679.688          41.000  
G 3  18161243.601    95437976.919       -1337.479          52.000  
G31  21279818.361   111826201.090        -926.432          48.000  
G 1  20141638.540   105845022.9872      -3620.033          45.000  
G23  19226659.385   101036776.834        1360.986          48.000  
G19  19627269.771   103142000.4732       -187.901          42.000  
G 4  20111870.737   105688583.0012       2672.978          43.000  
G 9  20788301.703                3       2979.124          45.000  
> 2019 11 25  9 11 26.9930000  0 17                     
R17  17658496.738    94494155.6333       1112.231          52.000  
R 1  17484376.025    93463973.076       -2359.836          48.000  
R 8  20578704.025   110197985.819       -4374.604          47.000  
R23  20768446.963                3      -5067.332          32.000  
G11  21221700.044                3      -4464.795          31.000  
R 2  18380603.919    98082352.860        2091.068          52.000  
G17  19716122.576   103608924.544       -1305.812          49.000  
R18  21287901.943                3       3655.739          32.000  
R 9  21203783.901                3      -1258.545          30.000  
G22  19409910.443   101999764.762       -2473.082          48.000  
G 3  18161497.981    95439313.791       -1336.467          52.000  
G31  21279994.599   111827127.320        -926.606          47.000  
G 1  20142327.261                3      -3620.801          38.000  
G23  19226400.171   101035416.348        1360.361          48.000  
G19  19627305.099   103142184.3853       -189.107          44.000  
G 4  20111363.141   105685910.4732       2672.791          44.000  
G 9  20787737.620                3       2978.711          34.000  
> 2019 11 25  9 11 27.9930000  0 15                     
R17  17658288.875    94493043.9202       1111.402          52.000  
R 1  17484817.546    93466333.549       -2360.543          50.000  
R 8  20579520.778   110202359.719       -4373.126          41.000  
R23  20769381.793                3      -5051.595          32.000  
R 2  18380212.301    98080262.554        2089.124          53.000  
G17  19716371.036   103610231.407       -1307.859          50.000  
R18  21287214.723                3       3654.705          32.000  
R 9  21204022.755                3      -1261.657          32.000  
G22  19410380.731   102002237.717       -2473.059          48.000  
G 3  18161752.462    95440650.810       -1337.592          52.000  
G31  21280170.772   111828053.762        -926.501          47.000  
G 1  20143016.152                2      -3621.033          44.000  
G23  19226141.803   101034056.510        1358.832          48.000  
G19  19627339.929   103142373.2362       -187.843          41.000  
G 9  20787166.885                2       2977.127          40.000  
> 2019 11 25  9 11 28.9930000  0 16                     
R17  17658081.589                3       1109.143          47.000  
R 1  17485259.421    93468693.947       -2359.635          49.000  
R 8  20580335.398                3      -4367.743          46.000  
R23  20770333.175                3      -5058.024          31.000  
R 2  18379821.307    98078175.679        2084.830          52.000  
G17  19716620.526   103611541.672       -1312.865          50.000  
R 9  21204258.481                3      -1239.142          32.000  
G22  19410851.163   102004709.974       -2471.094          47.000  
G 3  18162006.729    95441988.241       -1337.096          51.000  
G31  21280346.971   111828978.362        -922.160          47.000  
G 1  20143705.453                3      -3620.454          45.000  
G23  19225883.366   101032698.889        1356.599          48.000  
G14  22356246.062                3      -3795.885          26.000  
G19  19627378.097                3       -193.941          36.000  
G 4  20110346.792   105680584.8753       2666.718          42.000  
G 9  20786605.790                3       2980.713          39.000  
> 2019 11 25  9 11 29.9930000  0 17                     
R17  17657874.546    94490826.5362       1105.980          51.000  
R 1  17485700.776    93471053.203       -2359.526          49.000  
R 8  20581149.459   110211091.0122      -4365.542          48.000  
R23  20771270.505                3      -5058.290          36.000  
R 2  18379430.850    98076092.775        2081.092          53.000  
G17  19716870.584   103612855.868       -1315.699          50.000  
R18  21285849.396                3       3633.830          30.000  
R 9  21204496.376                3      -1251.044          28.000  
G22  19411321.311   102007180.048       -2469.899          48.000  
G 3  18162261.350    95443325.177       -1336.742          52.000  
G31  21280522.211   111829899.592        -920.550          47.000  
G 1  20144396.966                3      -3615.226          35.000  
G23  19225625.207   101031343.170        1354.650          46.000  
G14  22356970.769                3      -3786.801          28.000  
G19  19627419.433                3       -214.435          38.000  
G 4  20109838.847                3       2656.055          39.000  
G 9  20786038.200                2       2970.054          39.000  
> 2019 11 25  9 11 30.9930000  0 16                     
R17  17657668.040    94489720.9403       1104.424          47.000  
R 1  17486141.904    93473411.751       -2358.068          49.000  
R 8  20581967.041   110215460.6043      -4362.844          44.000  
R23  20772216.812                3      -5065.186          37.000  
R 2  18379041.121    98074012.805        2078.271          53.000  
G17  19717121.452   103614173.024       -1318.647          50.000  
R18  21285160.501                3       3645.264          36.000  
R 9  21204730.261                3      -1249.301          35.000  
G22  19411791.123   102009648.803       -2468.224          48.000  
G 3  18162515.612    95444661.965       -1336.620          51.000  
G31  21280696.883   111830818.593        -917.871          48.000  
G 1  20145078.781                3      -3621.582          40.000  
G23  19225367.624   101029989.051        1353.145          46.000  
G19  19627455.227                3       -200.565          39.000  
G 4  20109332.551                2       2661.370          45.000  
G 9  20785472.189   109228393.2923       2967.331          46.000  
> 2019 11 25  9 11 31.9930000  0 18                     
R17  17657461.665    94488617.2773       1103.223          53.000  
R 1  17486582.745    93475768.269       -2354.805          49.000  
R 8  20582784.846   110219820.2142      -4356.652          42.000  
R23  20773152.079                2      -5054.745          45.000  
G11  21225942.454   111543080.2012      -4463.641          43.000  
R 2  18378652.352    98071936.788        2073.498          53.000  
G17  19717373.010   103615494.143       -1323.659          49.000  
R18  21284468.726                3       3651.818          33.000  
R 9  21204957.040                3      -1231.638          30.000  
G22  19412260.529   102012114.446       -2462.809          47.000  
G 3  18162769.709    95445997.443       -1333.713          52.000  
G31  21280871.032   111831733.057        -910.347          48.000  
G 1  20145772.143                2      -3617.560          47.000  
G23  19225110.282   101028636.403        1352.572          48.000  
G14  22358418.915                3      -3799.958          27.000  
G19  19627491.432   103143163.0212       -203.669          47.000  
G 4  20108826.425   105672595.1582       2658.612          45.000  
G 9  20784908.272   109225428.6802       2962.889          47.000  
> 2019 11 25  9 11 32.9930000  0 18                     
R17  17657255.504    94487513.9402       1099.376          52.000  
R 1  17487022.918    93478121.531       -2354.570          50.000  
R 8  20583596.551   110224172.5022      -4349.805          45.000  
R23  20774095.123   111127373.4322      -5057.770          39.000  
G11  21226787.864   111547544.8462      -4465.508          41.000  
R 2  18378264.133    98069865.409        2067.601          52.000  
G17  19717625.118   103616819.855       -1328.558          49.000  
R18  21283779.626                2       3649.663          39.000  
R 9  21205193.333                3      -1231.370          29.000  
G22  19412728.902   102014575.544       -2461.708          48.000  
G 3  18163023.383    95447330.710       -1335.096          51.000  
G31  21281043.719   111832641.199        -907.102          48.000  
G 1  20146459.106   105870363.5122      -3617.417          47.000  
G23  19224853.384   101027285.224        1348.358          48.000  
G 6  21134154.383   111060730.6802       2667.518          45.000  
G19  19627531.786   103143368.2382       -208.443          47.000  
G 4  20108320.909   105669938.5522       2654.394          47.000  
G 9  20784343.090                3       2959.228          34.000  
> 2019 11 25  9 11 33.9930000  0 19                     
R17  17657049.692    94486414.8032       1097.255          53.000  
R 1  17487463.274    93480475.817       -2356.212          50.000  
R 8  20584406.695   110228522.2152      -4349.844          44.000  
R23  20775057.603                3      -5086.011          26.000  
G11  21227640.543                3      -4467.501          34.000  
R 2  18377876.720    98067798.605        2064.658          52.000  
G17  19717878.312   103618150.110       -1332.593          50.000  
R18  21283086.054   113610535.3242       3650.591          39.000  
R 9  21205422.821                3      -1245.235          29.000  
G22  19413197.392   102017036.935       -2462.372          49.000  
G 3  18163277.432    95448665.736       -1336.718          51.000  
G31  21281216.280   111833547.401        -906.126          48.000  
G 1  20147148.001   105873981.6852      -3619.823          47.000  
G23  19224596.687   101025937.784        1345.161          49.000  
G 6  21133646.219   111058062.3442       2667.557          45.000  
G14  22359870.376                3      -3788.751          26.000  
G19  19627568.863   103143577.1642       -210.721          47.000  
G 4  20107816.458                3       2648.291          32.000  
G 9  20783780.622   109219503.7872       2954.113          42.000  
> 2019 11 25  9 11 34.9930000  0 17                     
R17  17656844.394    94485316.6452       1098.943          52.000  
R 1  17487903.966    93482830.872       -2355.548          49.000  
R 8  20585219.513   110232872.1792      -4351.833          44.000  
R23  20776001.987                3      -5051.476          33.000  
R 2  18377489.605    98065732.263        2067.673          52.000  
G17  19718131.340   103619480.874       -1328.777          50.000  
R18  21282408.815   113606868.6213       3650.526          46.000  
R 9  21205658.913                3      -1241.524          31.000  
G22  19413665.791   102019498.889       -2462.848          48.000  
G 3  18163531.752    95450001.450       -1335.812          52.000  
G31  21281388.889   111834454.546        -909.403          48.000  
G 1  20147837.337   105877600.2232      -3619.010          48.000  
G23  19224340.374   101024590.837        1347.424          49.000  
G 6  21133135.181                3       2672.375          33.000  
G19  19627610.246   103143786.8692       -208.052          46.000  
G 4  20107313.046                3       2650.629          45.000  
G 9  20783218.201   109216547.7652       2954.800          43.000  
> 2019 11 25  9 11 35.9930000  0 16                     
R17  17656639.254    94484217.9882       1098.497          52.000  
R 1  17488345.055    93485187.603       -2357.793          50.000  
R 8  20586032.323   110237225.8332      -4355.749          45.000  
R23  20776943.051                3      -5055.567          39.000  
R 2  18377101.926    98063663.074        2070.410          53.000  
G17  19718384.124   103620809.115       -1327.288          50.000  
R18  21281718.323   113603218.1552       3648.938          41.000  
R 9  21205886.896                3      -1255.078          32.000  
G22  19414134.552   102021962.774       -2465.308          48.000  
G 3  18163786.132    95451338.000       -1337.611          52.000  
G31  21281562.178   111835365.680        -913.044          48.000  
G 1  20148526.359   105881219.2792      -3618.211          44.000  
G23  19224083.729   101023242.543        1348.761          49.000  
G19  19627649.099   103143995.0352       -209.120          38.000  
G 4  20106801.641   105661987.7272       2655.485          45.000  
G 9  20782656.322   109213596.0313       2958.834          45.000  
> 2019 11 25  9 11 36.9930000  0 17                     
R17  17656433.607    94483118.9022       1100.127          52.000  
R 1  17488786.315    93487546.040       -2358.963          49.000  
R 8  20586845.922   110241582.9232      -4357.829          45.000  
R23  20777883.845                2      -5052.095          39.000  
R 2  18376713.301    98061591.397        2073.058          51.000  
G17  19718636.664   103622135.103       -1324.299          50.000  
R18  21281041.539                3       3648.135          43.000  
R 9  21206126.776                3      -1232.180          35.000  
G22  19414603.972   102024428.836       -2467.135          48.000  
G 3  18164040.652    95452675.508       -1338.152          52.000  
G31  21281736.480   111836280.877        -917.226          48.000  
G 1  20149213.187                3      -3621.665          45.000  
G23  19223827.045   101021893.422        1349.691          48.000  
G14  22362038.020                2      -3800.366          31.000  
G19  19627688.314   103144197.7283       -203.825          42.000  
G 4  20106301.509   105659330.8472       2660.412          40.000  
G 9  20782092.082                3       2962.124          43.000  
> 2019 11 25  9 11 37.9930000  0 16                     
R17  17656228.070    94482015.2343       1099.548          52.000  
R 1  17489227.618    93489906.019       -2361.088          49.000  
R 8  20587659.839   110245942.8642      -4361.032          45.000  
R23  20778834.738                3      -5071.778          37.000  
R 2  18376324.593    98059517.642        2074.093          52.000  
G17  19718888.632   103623459.269       -1324.129          48.000  
R18  21280361.491                3       3654.492          36.000  
R 9  21206346.509                2      -1255.012          38.000  
G22  19415073.470   102026896.767       -2469.070          48.000  
G 3  18164295.033    95454013.870       -1338.838          52.000  
G31  21281911.392   111837199.600        -920.039          48.000  
G23  19223570.090   101020543.662        1349.377          48.000  
G14  22362755.944                2      -3805.479          30.000  
G19  19627727.394                3       -206.543          36.000  
G 4  20105795.313                3       2656.860          40.000  
G 9  20781536.131                3       2967.188          30.000  
> 2019 11 25  9 11 38.9930000  0 17                     
R17  17656022.655    94480915.5652       1100.935          48.000  
R 1  17489668.938    93492266.581       -2361.323          48.000  
R 8  20588474.367   110250303.4211      -4361.342          48.000  
R23  20779781.940                3      -5045.411          37.000  
R 2  18375935.824    98057442.817        2074.677          53.000  
G17  19719140.512   103624782.387       -1323.741          50.000  
R18  21279676.578                3       3725.246          26.000  
R 9  21206583.923                3      -1260.498          35.000  
G22  19415543.238   102029365.407       -2469.171          48.000  
G 3  18164549.893    95455352.588       -1339.142          52.000  
G31  21282086.396   111838119.835        -920.667          47.000  
G 1  20150599.266                3      -3625.000          39.000  
G23  19223313.393   101019193.579        1349.719          49.000  
G14  22363483.452                3      -3806.517          30.000  
G19  19627767.643                2       -204.279          42.000  
G 4  20105288.607                3       2663.254          42.000  
G 9  20780964.776                3       2959.131          35.000  
> 2019 11 25  9 11 39.9930000  0 17                     
R17  17655817.445    94479817.1532       1098.293          51.000  
R 1  17490110.782    93494627.668       -2361.676          48.000  
R 8  20589288.939   110254664.322       -4361.693          47.000  
R23  20780726.682                3      -5060.645          34.000  
R 2  18375547.361    98055369.326        2072.456          52.000  
G17  19719392.524   103626107.072       -1326.673          50.000  
R18  21278993.895                3       3606.785          26.000  
R 9  21206824.326                3      -1249.170          33.000  
G22  19416012.880   102031834.175       -2469.244          47.000  
G 3  18164804.811    95456691.812       -1339.846          52.000  
G31  21282261.531   111839040.466        -920.641          48.000  
G 1  20151281.426                2      -3622.093          44.000  
G23  19223056.539   101017844.607        1349.321          42.000  
G14  22364207.087   117524701.2742      -3805.202          38.000  
G19  19627804.110   103144806.3032       -206.606          44.000  
G 4  20104783.043   105651347.8142       2656.973          45.000  
G 9  20780400.004   109201738.4272       2962.631          47.000  
> 2019 11 25  9 11 40.9930000  0 19                     
R17  17655612.911    94478720.1042       1096.219          51.000  
R 1  17490552.696    93496989.310       -2361.861          49.000  
R 8  20590103.044   110259024.910       -4361.359          44.000  
R23  20781670.355                3      -5055.274          35.000  
G 6  21130076.306                3       2673.773          42.000  
R 2  18375158.989    98053297.176        2071.010          53.000  
G17  19719644.706   103627433.217       -1327.270          50.000  
R18  21278311.775                2       3646.312          31.000  
R 9  21207057.343                3      -1255.157          38.000  
G22  19416482.898   102034303.058       -2468.872          48.000  
G 3  18165059.658    95458031.598       -1340.730          51.000  
G31  21282436.905   111839961.343        -921.474          47.000  
G 1  20151974.609                3      -3623.389          40.000  
G23  19222800.126   101016496.155        1347.615          48.000  
G11  21233609.922                3      -4441.190          28.000  
G14  22364934.796                3      -3796.924          32.000  
G19  19627847.033                3       -211.035          36.000  
G 4  20104277.545   105648690.5932       2656.395          46.000  
G 9  20779835.765   109198775.6132       2961.705          46.000  
> 2019 11 25  9 11 41.9930000  0 17                     
R17  17655408.054    94477624.5972       1095.602          51.000  
R 1  17490994.313    93499351.802       -2362.559          49.000  
R 8  20590917.297   110263384.773       -4358.718          41.000  
R23  20782614.171                3      -5058.106          40.000  
R 2  18374771.105    98051226.246        2070.767          53.000  
G17  19719897.516   103628760.787       -1327.653          50.000  
R18  21277629.048                3       3644.971          34.000  
R 9  21207295.299                3      -1248.828          35.000  
G22  19416952.815   102036772.361       -2468.652          47.000  
G 3  18165314.649    95459372.145       -1339.878          52.000  
G31  21282612.398   111840882.737        -922.077          46.000  
G 1  20152661.367                2      -3621.628          42.000  
G23  19222543.747   101015148.929        1347.203          49.000  
G14  22365655.036                2      -3801.367          27.000  
G19  19627885.401   103145233.5452       -209.722          47.000  
G 4  20103772.196   105646034.3682       2656.589          46.000  
G 9  20779273.322   109195813.7212       2962.520          40.000  
> 2019 11 25  9 11 42.9930000  0 17                     
R17  17655203.323    94476529.8982       1094.241          53.000  
R 1  17491436.108    93501714.422       -2362.464          49.000  
R 8  20591730.425                3      -4334.961          32.000  
R23  20783556.418                3      -4962.256          34.000  
R 2  18374383.296    98049156.006        2069.701          52.000  
G17  19720150.483   103630089.214       -1328.937          50.000  
R18  21276944.049                3       3658.022          30.000  
R 9  21207525.764                3      -1254.199          37.000  
G22  19417422.404   102039241.426       -2468.828          48.000  
G 3  18165569.798    95460712.785       -1340.594          52.000  
G31  21282787.454   111841804.266        -921.591          48.000  
G 1  20153348.483   105906572.4442      -3622.298          47.000  
G23  19222287.521   101013801.912        1347.173          49.000  
G11  21235290.125                2      -4463.516          34.000  
G14  22366381.720                3      -3806.445          31.000  
G19  19627924.442   103145443.4332       -210.578          48.000  
G 9  20778708.620   109192852.2092       2960.703          46.000  
> 2019 11 25  9 11 43.9930000  0 17                     
R17  17654998.881    94475436.0472       1092.772          52.000  
R 1  17491878.114    93504076.997       -2363.366          49.000  
R 8  20592544.011   110272100.5702      -4357.771          42.000  
R23  20784498.232                2      -5058.825          40.000  
R 2  18373995.482    98047086.801        2068.366          53.000  
G17  19720403.136   103631418.782       -1330.630          50.000  
R18  21276261.278                3       3628.101          30.000  
R 9  21207758.284                3      -1266.065          31.000  
G22  19417892.177   102041710.089       -2469.142          47.000  
G 3  18165824.859    95462053.431       -1341.027          52.000  
G31  21282962.785   111842725.393        -921.047          49.000  
G 1  20154039.681   105910194.3882      -3622.685          44.000  
G23  19222031.387   101012455.567        1345.787          48.000  
G14  22367104.534                3      -3796.091          24.000  
G19  19627964.303   103145654.4212       -212.151          47.000  
G 4  20102761.676   105640725.4883       2653.966          39.000  
G 9  20778147.068                3       2961.340          37.000  
> 2019 11 25  9 11 44.9930000  0 17                     
R17  17654794.766    94474343.243        1092.364          52.000  
R 1  17492320.093    93506439.564       -2362.476          49.000  
R 8  20593357.789   110276457.5092      -4357.233          45.000  
R23  20785441.787                3      -5057.188          44.000  
R 2  18373607.725    98045019.096        2066.660          53.000  
G17  19720656.404   103632749.840       -1331.931          50.000  
R 9  21207997.600                3      -1267.224          24.000  
G22  19418362.072   102044178.370       -2468.295          48.000  
G 3  18166080.099    95463394.272       -1341.119          52.000  
G31  21283137.977   111843646.005        -920.895          48.000  
G 1  20154728.350   105913816.9582      -3621.645          39.000  
G23  19221775.131   101011110.155        1344.353          47.000  
G11  21236982.866                3      -4463.965          37.000  
G14  22367827.252                3      -3798.939          29.000  
G19  19628005.398   103145866.8102       -212.326          45.000  
G 4  20102256.627   105638070.5803       2653.055          45.000  
G 9  20777582.313   109186931.0592       2959.075          46.000  
> 2019 11 25  9 11 45.9930000  0 17                     
R17  17654590.873    94473251.981        1090.729          52.000  
R 1  17492762.142    93508802.672       -2363.814          49.000  
R 8  20594171.462   110280814.5982      -4356.581          47.000  
R23  20786385.687                3      -5057.762          43.000  
R 2  18373220.566    98042952.919        2065.392          53.000  
G17  19720910.087   103634082.596       -1333.560          50.000  
R18  21274892.034                3       3645.235          33.000  
R 9  21208237.366                3      -1268.148          30.000  
G22  19418831.989   102046646.701       -2468.269          49.000  
G 3  18166335.465    95464735.687       -1341.953          52.000  
G31  21283313.085   111844566.445        -920.773          48.000  
G 1  20155416.883                3      -3623.077          46.000  
G23  19221519.350   101009765.787        1343.838          49.000  
G11  21237841.700                2      -4468.975          41.000  
G19  19628046.079   103146080.8012       -214.619          48.000  
G 4  20101751.613   105635417.8682       2652.261          46.000  
G 9  20777019.435   109183972.8362       2957.611          47.000  
> 2019 11 25  9 11 46.9930000  0 18                     
R17  17654387.063    94472161.597        1090.131          52.000  
R 1  17493204.496    93511165.804       -2362.997          49.000  
R 8  20594985.462   110285170.9442      -4355.060          50.000  
R23  20787331.589   111198179.6442      -5060.194          46.000  
R 2  18372833.420    98040887.871        2064.566          52.000  
G17  19721163.935   103635416.538       -1334.565          50.000  
R18  21274206.899                3       3651.068          38.000  
R 9  21208470.336                3      -1246.571          29.000  
G22  19419301.291   102049114.878       -2467.565          47.000  
G 3  18166590.627    95466077.324       -1341.392          52.000  
G31  21283488.189   111845486.689        -920.018          48.000  
G 1  20156106.917   105921052.8142      -3622.884          48.000  
G23  19221263.599   101008422.335        1343.424          48.000  
G11  21238688.503   111610079.2642      -4468.259          42.000  
G14  22369274.067                3      -3801.492          27.000  
G19  19628087.135   103146295.9272       -215.714          47.000  
G 4  20101247.202   105632766.2192       2651.191          46.000  
G 9  20776456.316   109181015.6382       2956.572          47.000  
> 2019 11 25  9 11 47.9930000  0 20                     
R17  17654183.432    94471071.603        1089.535          52.000  
R 1  17493646.253    93513528.297       -2362.623          49.000  
R 8  20595799.100   110289525.7942      -4354.019          47.000  
R23  20788276.204   111203238.6782      -5058.677          46.000  
G 6  21126530.814   111020668.4282       2667.803          44.000  
R 2  18372446.479    98038823.335        2064.165          53.000  
G17  19721417.718   103636751.111       -1335.073          50.000  
R18  21273515.574   113559395.3552       3648.200          47.000  
R 9  21208703.623                3      -1255.661          29.000  
G22  19419770.658   102051581.962       -2466.925          48.000  
G 3  18166845.827    95467418.324       -1340.935          52.000  
G31  21283663.202   111846406.050        -919.301          47.000  
G 1  20156796.345   105924675.1862      -3622.179          47.000  
G23  19221007.840   101007078.762        1343.604          48.000  
G11  21239542.591   111614546.8822      -4467.407          42.000  
G14  22369998.988                3      -3798.184          27.000  
G19  19628128.112   103146511.7422       -216.546          47.000  
G 4  20100741.782   105630114.7152       2651.134          46.000  
G12  22909914.497                3       -953.027          39.000  
G 9  20775893.848   109178058.6732       2956.804          47.000  
> 2019 11 25  9 11 48.9930000  0 19                     
R17  17653979.967    94469983.143        1087.677          52.000  
R 1  17494088.171    93515891.157       -2363.087          49.000  
R 8  20596612.420   110293879.9262      -4354.269          48.000  
R23  20789224.728   111208297.9562      -5059.717          46.000  
G 6  21126022.511   111018001.5532       2666.046          45.000  
R 2  18372059.948    98036760.348        2062.180          53.000  
G17  19721671.946   103638087.416       -1337.195          50.000  
R18  21272835.809   113555747.7772       3647.019          45.000  
R 9  21208942.948                3      -1254.114          28.000  
G22  19420240.174   102054048.858       -2466.768          48.000  
G 3  18167101.303    95468759.756       -1341.611          52.000  
G31  21283837.962   111847325.240        -919.141          47.000  
G 1  20157486.016   105928297.4982      -3622.175          47.000  
G23  19220752.504   101005736.057        1342.218          48.000  
G11  21240390.204   111619014.6762      -4468.359          42.000  
G19  19628169.343   103146728.8411       -218.627          47.000  
G 4  20100237.192   105627464.1842       2650.091          46.000  
G12  22910096.429   120393368.5042       -960.427          40.000  
G 9  20775331.523   109175102.7512       2955.335          47.000  
> 2019 11 25  9 11 49.9930000  0 20                     
R17  17653776.266    94468895.898        1086.877          54.000  
R 1  17494530.377    93518254.297       -2363.148          51.000  
R 8  20597425.413   110298233.4202      -4352.855          49.000  
R23  20790168.419   111213357.9632      -5060.802          46.000  
G 6  21125517.458   111015335.5012       2666.194          44.000  
R 2  18371673.726    98034698.879        2060.659          54.000  
G17  19721926.662   103639425.293       -1338.533          50.000  
R18  21272150.147   113552100.6702       3647.319          47.000  
R 9  21209177.427                3      -1252.731          35.000  
G22  19420709.790   102056515.661       -2466.807          47.000  
G 3  18167356.525    95470101.547       -1341.959          51.000  
G31  21284012.957   111848244.328        -918.954          47.000  
G 1  20158175.278   105931920.1692      -3623.247          47.000  
G23  19220497.242   101004394.376        1340.953          48.000  
G11  21241240.209   111623483.1062      -4469.105          41.000  
G19  19628211.210   103146947.965        -219.592          46.000  
G 4  20099733.945   105624814.9502       2648.151          45.000  
G12  22910284.040   120394329.0972       -960.546          38.000  
G18  22155273.392   116426747.0142      -4459.114          38.000  
G 9  20774768.967   109172148.1392       2953.839          46.000  
> 2019 11 25  9 11 50.9930000  0 21                     
R17  17653573.364    94467809.604        1084.749          54.000  
R 1  17494972.570    93520616.632       -2361.591          51.000  
R 8  20598237.812   110302584.5122      -4348.478          50.000  
R23  20791113.823   111218418.8092      -5061.696          47.000  
G 6  21125009.635   111012670.2112       2663.216          43.000  
R 2  18371287.776    98032639.306        2056.507          54.000  
G17  19722181.837   103640765.105       -1342.631          49.000  
R18  21271467.869   113548453.4172       3646.364          47.000  
R 9  21209400.144   113256943.2342      -1254.329          43.000  
G22  19421178.830   102058981.210       -2464.026          47.000  
G 3  18167611.822    95471442.881       -1340.976          51.000  
G31  21284187.603   111849161.681        -914.783          48.000  
G 1  20158864.941   105935542.5692      -3621.628          46.000  
G23  19220242.129   101003053.680        1339.427          48.000  
G11  21242091.431   111627952.1422      -4469.574          41.000  
G14  22372165.948                3      -3795.479          26.000  
G19  19628253.016   103147168.714        -223.551          46.000  
G 4  20099230.009   105622167.3402       2645.376          45.000  
G12  22910465.029   120395289.8512       -961.907          40.000  
G18  22156122.846   116431205.1262      -4457.423          39.000  
G 9  20774206.721   109169195.3792       2950.304          46.000  
> 2019 11 25  9 11 51.9930000  0 21                     
R17  17653370.946    94466726.130        1082.140          53.000  
R 1  17495413.925    93522976.813       -2359.035          51.000  
R 8  20599048.885   110306929.0072      -4340.849          49.000  
R23  20792059.961   111223481.5392      -5063.399          47.000  
G 6  21124502.829   111010008.2752       2660.157          42.000  
R 2  18370902.977    98030585.643        2050.738          53.000  
G17  19722437.727   103642110.752       -1348.293          49.000  
R18  21270784.881   113544806.7042       3647.180          47.000  
R 9  21209634.195   113258194.1892      -1249.017          46.000  
G22  19421647.298   102061443.256       -2460.208          47.000  
G 3  18167866.805    95472783.227       -1339.792          51.000  
G31  21284361.110   111850073.113        -908.741          47.000  
G 1  20159553.723   105939163.9092      -3621.059          46.000  
G23  19219987.504   101001715.803        1336.338          48.000  
G11  21242941.736   111632422.5692      -4471.665          42.000  
G14  22372886.524                2      -3787.816          31.000  
G19  19628296.171   103147394.354        -227.826          47.000  
G 4  20098727.163   105619524.4652       2640.448          45.000  
G12  22910648.034   120396250.8402       -960.226          38.000  
G18  22156970.709   116435661.4642      -4455.782          39.000  
G 9  20773646.194   109166248.1542       2944.585          46.000  
> 2019 11 25  9 11 52.9930000  0 21                     
R17  17653169.042    94465644.519        1080.535          53.000  
R 1  17495855.219    93525335.970       -2359.990          51.000  
R 8  20599859.600   110311269.415       -4340.121          49.000  
R23  20793007.229   111228546.8982      -5067.291          48.000  
G 6  21123997.501   111007347.7052       2660.875          45.000  
R 2  18370518.958    98028536.118        2048.171          53.000  
G17  19722694.664   103643460.345       -1351.156          49.000  
R18  21270101.460   113541159.5022       3647.826          48.000  
R 9  21209867.928   113259442.3962      -1248.232          47.000  
G22  19422115.466   102063903.799       -2461.382          47.000  
G 3  18168121.800    95474123.446       -1341.272          51.000  
G31  21284534.038   111850981.301        -908.032          47.000  
G 1  20160242.989   105942785.8122      -3623.416          47.000  
G23  19219733.429   101000380.723        1333.076          48.000  
G11  21243793.381   111636895.2292      -4474.476          42.000  
G14  22373606.433   117574098.6862      -3785.880          37.000  
G19  19628339.709   103147623.056        -229.818          47.000  
G 4  20098224.715   105616885.6312       2636.825          45.000  
G12  22910830.686   120397211.3712       -959.165          39.000  
G18  22157818.257   116440117.9782      -4457.344          39.000  
G 9  20773086.505   109163305.3532       2940.796          46.000  
> 2019 11 25  9 11 53.9930000  0 21                     
R17  17652966.616    94464562.647        1083.164          53.000  
R 1  17496296.819    93527694.721       -2357.482          51.000  
R 8  20600669.600   110315608.660       -4338.251          48.000  
R23  20793955.002   111233614.7642      -5070.008          48.000  
G 6  21123490.803   111004685.7532       2664.061          43.000  
R 2  18370135.180    98026487.384        2049.029          53.000  
G17  19722951.295   103644810.468       -1349.740          49.000  
R18  21269417.442   113537510.1882       3652.017          49.000  
R 9  21210100.753   113260689.0902      -1243.241          44.000  
G22  19422583.786   102066364.478       -2460.328          47.000  
G 3  18168376.931    95475463.675       -1339.544          51.000  
G31  21284706.751   111851889.172        -907.575          47.000  
G 1  20160932.674   105946409.4782      -3624.763          47.000  
G23  19219479.428   100999047.229        1332.742          48.000  
G11  21244645.335   111641370.2312      -4477.003          41.000  
G14  22374324.579   117577883.7852      -3782.922          37.000  
G19  19628382.894   103147851.595        -227.669          46.000  
G 4  20097722.956   105614248.7972       2635.319          46.000  
G12  22911013.211   120398170.1852       -956.400          40.000  
G18  22158666.211   116444576.4852      -4459.857          39.000  
G 9  20772526.828   109160364.4922       2939.453          46.000  
> 2019 11 25  9 11 54.9930000  0 21                     
R17  17652764.110    94463479.002        1082.908          53.000  
R 1  17496737.096    93530050.604       -2353.719          51.000  
R 8  20601479.107   110319943.077       -4329.287          47.000  
R23  20794903.509   111238687.7201      -5076.695          48.000  
G 6  21122983.743   111002020.5512       2664.156          43.000  
R 2  18369751.432    98024440.668        2042.629          54.000  
G17  19723208.573   103646161.739       -1355.227          49.000  
R18  21268733.001   113533855.413        3656.706          48.000  
R 9  21210335.458   113261930.1302      -1236.568          46.000  
G22  19423051.727   102068823.643       -2456.744          47.000  
G 3  18168631.652    95476802.424       -1337.756          51.000  
G31  21284878.666   111852793.425        -899.654          47.000  
G 1  20161622.774   105950035.982       -3626.928          47.000  
G23  19219226.330   100997716.818        1327.815          49.000  
G11  21245498.093   111645850.2282      -4482.847          42.000  
G14  22375046.625   117581663.9362      -3775.561          37.000  
G19  19628426.175   103148079.237        -229.985          46.000  
G 4  20097222.025   105611616.6722       2628.013          46.000  
G12  22911194.436   120399123.7832       -951.100          43.000  
G18  22159515.701   116449038.6852      -4462.537          39.000  
G 9  20771968.072   109157428.599        2930.955          47.000  
> 2019 11 25  9 11 55.9930000  0 21                     
R17  17652562.285    94462398.926        1077.244          53.000  
R 1  17497177.147    93532402.404       -2350.660          51.000  
R 8  20602286.468   110324266.472       -4319.043          45.000  
R23  20795852.687   111243765.413       -5077.462          50.000  
G 6  21122477.103   110999359.5612       2657.855          43.000  
R 2  18369369.766    98022403.234        2033.215          53.000  
G17  19723467.564   103647521.892       -1364.435          49.000  
R18  21268048.185   113530200.148        3652.888          48.000  
R 9  21210566.739   113263163.0712      -1230.831          48.000  
G22  19423518.585   102071277.222       -2451.061          48.000  
G 3  18168886.037    95478139.324       -1336.332          50.000  
G31  21285049.098   111853687.484        -890.019          47.000  
G 1  20162312.341   105953661.549       -3623.750          47.000  
G23  19218974.305   100996391.338        1323.947          49.000  
G11  21246351.177   111650333.5472      -4483.002          42.000  
G14  22375765.038   117585433.0922      -3765.859          39.000  
G19  19628470.913   103148313.797        -238.718          47.000  
G 4  20096722.858   105608992.8092       2621.281          45.000  
G12  22911375.543   120400076.1852       -954.317          40.000  
G18  22160364.061   116453499.1262      -4458.320          40.000  
G 9  20771411.397   109154502.231        2922.988          48.000  
> 2019 11 25  9 11 56.9930000  0 21                     
R17  17652361.425    94461323.424        1073.348          53.000  
R 1  17497616.500    93534752.304       -2349.804          51.000  
R 8  20603092.476   110328583.036       -4314.408          45.000  
R23  20796801.975   111248842.280       -5075.915          49.000  
G 6  21121972.041   110996704.8702       2652.014          43.000  
R 2  18368989.037    98020372.567        2027.918          53.000  
G17  19723727.821   103648889.232       -1370.002          49.000  
R18  21267364.167   113526548.593        3649.180          49.000  
R 9  21210797.222   113264393.7222      -1230.654          46.000  
G22  19423984.637   102073726.237       -2447.473          48.000  
G 3  18169140.287    95479475.101       -1335.586          50.000  
G31  21285218.243   111854575.228        -886.198          47.000  
G 1  20163001.677   105957283.514       -3620.690          47.000  
G23  19218722.403   100995067.522        1323.439          49.000  
G11  21247203.825   111654815.6602      -4481.057          42.000  
G14  22376480.955   117589196.1582      -3761.414          37.000  
G19  19628516.528   103148555.437        -244.274          47.000  
G 4  20096224.375   105606372.5342       2619.280          44.000  
G12  22911557.256   120401032.0872       -957.655          41.000  
G18  22161211.823   116457954.6032      -4453.373          40.000  
G 9  20770855.459   109151580.400        2920.839          47.000  
> 2019 11 25  9 11 57.9930000  0 21                     
R17  17652160.642    94460250.790        1071.069          53.000  
R 1  17498055.705    93537101.846       -2350.132          51.000  
R 8  20603898.440   110332897.124       -4313.712          48.000  
R23  20797750.569   111253917.416       -5074.588          48.000  
G 6  21121467.751   110994053.8972       2649.289          44.000  
R 2  18368608.905    98018344.864        2026.622          53.000  
G17  19723988.715   103650259.986       -1372.143          49.000  
R18  21266680.982   113522900.047        3646.638          48.000  
R 9  21211027.844   113265624.9252      -1231.911          48.000  
G22  19424450.305   102076173.161       -2446.626          48.000  
G 3  18169394.131    95480810.509       -1335.635          50.000  
G31  21285386.882   111855460.799        -885.960          47.000  
G 1  20163690.498   105960902.891       -3618.605          47.000  
G23  19218470.574   100993743.807        1323.434          49.000  
G11  21248056.347   111659295.9012      -4479.551          43.000  
G14  22377196.078   117592957.2172      -3760.897          39.000  
G19  19628563.443   103148801.002        -247.374          46.000  
G 4  20095726.044   105603752.8712       2620.770          46.000  
G12  22911739.982   120401991.0362       -960.601          40.000  
G18  22162058.931   116462406.6712      -4451.106          39.000  
G 9  20770299.509   109148659.648        2920.227          47.000  
> 2019 11 25  9 11 58.9930000  0 21                     
R17  17651961.143    94459180.862        1067.949          54.000  
R 1  17498495.101    93539451.203       -2348.699          50.000  
R 8  20604703.707   110337209.060       -4308.024          48.000  
R23  20798699.184   111258990.796       -5073.950          49.000  
G 6  21120963.881   110991406.3682       2645.673          42.000  
R 2  18368229.642    98016319.729        2022.160          53.000  
G17  19724250.516   103651633.825       -1376.903          50.000  
R18  21265997.789   113519254.337        3644.162          48.000  
R 9  21211258.523   113266856.934       -1231.557          46.000  
G22  19424915.471   102078618.234       -2443.201          47.000  
G 3  18169648.315    95482145.688       -1335.008          51.000  
G31  21285554.958   111856344.642        -881.430          47.000  
G 1  20164378.748   105964519.988       -3616.706          47.000  
G23  19218218.667   100992420.058        1322.747          49.000  
G11  21248908.711   111663774.2432      -4477.964          42.000  
G14  22377912.584   117596716.6482      -3757.648          39.000  
G19  19628610.493   103149050.164        -251.803          46.000  
G 4  20095227.361   105601133.6612       2617.316          47.000  
G12  22911923.314   120402953.2732       -963.632          41.000  
G18  22162905.580   116466855.5402      -4446.770          40.000  
G 9  20769743.937   109145739.660        2917.804          47.000  
> 2019 11 25  9 11 59.9930000  0 21                     
R17  17651761.421    94458113.856        1066.520          53.000  
R 1  17498933.904    93541799.202       -2348.019          50.000  
R 8  20605508.528   110341516.216       -4306.732          48.000  
R23  20799647.547   111264064.727       -5074.093          48.000  
G 6  21120460.337   110988762.3662       2643.908          42.000  
R 2  18367850.912    98014299.409        2019.849          53.000  
G17  19724513.509   103653012.599       -1379.404          49.000  
R18  21265316.305   113515610.235        3643.933          49.000  
R 9  21211488.133   113268086.846       -1230.212          45.000  
G22  19425380.292   102081060.535       -2442.223          47.000  
G 3  18169902.355    95483480.211       -1334.614          51.000  
G31  21285721.281   111857224.176        -879.488          46.000  
G 1  20165066.853   105968135.513       -3615.514          47.000  
G23  19217967.035   100991098.189        1321.674          49.000  
G11  21249760.902   111668252.8742      -4478.517          41.000  
G14  22378626.830   117600471.5712      -3754.747          39.000  
G19  19628659.742   103149303.908        -254.377          46.000  
G 4  20094729.694   105598517.6992       2615.713          46.000  
G12  22912107.016   120403916.9102       -964.229          41.000  
G18  22163751.436   116471302.2482      -4446.325          40.000  
G 9  20769189.439   109142823.546        2915.648          47.000  
> 2019 11 25  9 12  0.9930000  0 21                     
R17  17651562.340    94457047.521        1065.956          53.000  
R 1  17499373.344    93544147.296       -2348.392          50.000  
R 8  20606313.825   110345822.785       -4306.578          48.000  
R23  20800596.136   111269138.688       -5074.027          49.000  
G 6  21119957.317   110986118.5312       2643.715          42.000  
R 2  18367472.547    98012279.589        2019.640          53.000  
G17  19724775.729   103654392.039       -1379.806          49.000  
R18  21264634.582   113511966.169        3643.937          49.000  
R 9  21211717.891   113269317.082       -1230.550          45.000  
G22  19425845.441   102083502.616       -2442.050          47.000  
G 3  18170156.618    95484814.822       -1334.829          51.000  
G31  21285887.751   111858103.787        -879.736          46.000  
G 1  20165754.710   105971751.026       -3615.771          47.000  
G23  19217715.717   100989776.626        1321.342          49.000  
G11  21250613.319   111672731.4662      -4478.688          41.000  
G14  22379340.836   117604226.0842      -3754.574          38.000  
G19  19628708.759   103149558.379        -254.723          46.000  
G 4  20094232.184   105595901.5731       2615.510          46.000  
G12  22912290.750   120404881.0002       -964.512          41.000  
G18  22164597.248   116475748.6632      -4446.753          40.000  
G 9  20768634.535   109139907.710        2915.739          47.000  
> 2019 11 25  9 12  1.9930000  0 21                     
R17  17651362.879    94455982.019        1065.193          53.000  
R 1  17499813.016    93546495.909       -2348.765          50.000  
R 8  20607118.751   110350129.419       -4306.502          48.000  
R23  20801545.271   111274212.877       -5074.211          49.000  
G 6  21119454.031   110983474.8902       2643.826          42.000  
R 2  18367094.532    98010260.225        2019.275          53.000  
G17  19725038.145   103655772.130       -1380.326          49.000  
R18  21263952.623   113508322.347        3643.841          49.000  
R 9  21211948.059   113270548.174       -1231.156          45.000  
G22  19426310.389   102085945.008       -2442.413          48.000  
G 3  18170410.732    95486149.851       -1335.190          51.000  
G31  21286054.741   111858984.081        -880.476          46.000  
G 1  20166442.624   105975366.858       -3615.910          47.000  
G23  19217464.386   100988455.541        1320.986          49.000  
G11  21251465.735   111677210.2592      -4478.735          41.000  
G14  22380054.676   117607980.8122      -3754.706          39.000  
G19  19628757.677   103149813.615        -255.436          47.000  
G 4  20093734.752   105593286.301        2615.317          46.000  
G12  22912474.370   120405845.7232       -965.153          41.000  
G18  22165443.335   116480195.2042      -4446.616          41.000  
G 9  20768080.037   109136992.160        2915.627          47.000  
> 2019 11 25  9 12  2.9930000  0 21                     
R17  17651163.698    94454917.184        1064.342          53.000  
R 1  17500252.321    93548844.879       -2349.393          50.000  
R 8  20607923.503   110354435.982       -4306.682          48.000  
R23  20802494.088   111279287.094       -5074.369          49.000  
G 6  21118951.064   110980831.3092       2643.386          42.000  
R 2  18366716.634    98008241.147        2018.859          53.000  
G17  19725300.819   103657152.698       -1381.084          49.000  
R18  21263270.093   113504678.606        3643.528          49.000  
R 9  21212178.441   113271779.960       -1232.665          44.000  
G22  19426775.376   102088387.547       -2442.909          48.000  
G 3  18170664.868    95487485.156       -1335.660          51.000  
G31  21286222.268   111859864.917        -881.264          46.000  
G 1  20167130.669   105978982.874       -3616.168          47.000  
G23  19217213.234   100987134.770        1320.547          49.000  
G11  21252318.052   111681689.1152      -4479.230          42.000  
G14  22380768.809   117611735.5992      -3755.093          39.000  
G19  19628806.428   103150069.458        -256.299          47.000  
G 4  20093236.945   105590671.234        2614.901          46.000  
G12  22912658.186   120406810.9502       -965.542          41.000  
G18  22166289.771   116484641.6702      -4446.252          41.000  
G 9  20767525.796   109134076.742        2915.126          47.000  
> 2019 11 25  9 12  3.9930000  0 21                     
R17  17650964.840    94453853.002        1063.656          53.000  
R 1  17500691.717    93551194.189       -2349.647          50.000  
R 8  20608728.159   110358742.467       -4306.708          47.000  
R23  20803442.712   111284361.371       -5074.493          48.000  
G 6  21118447.856   110978187.7512       2643.393          42.000  
R 2  18366338.039    98006222.333        2018.430          53.000  
G17  19725563.580   103658533.711       -1381.380          49.000  
R18  21262587.746   113501034.903        3643.528          49.000  
R 9  21212408.789   113273012.387       -1232.920          44.000  
G22  19427239.857   102090830.190       -2442.834          47.000  
G 3  18170919.092    95488820.699       -1335.987          51.000  
G31  21286389.964   111860746.253        -881.733          46.000  
G 1  20167819.198   105982599.022       -3616.280          47.000  
G23  19216961.929   100985814.296        1320.105          49.000  
G11  21253170.456   111686167.9622      -4478.963          41.000  
G14  22381482.898   117615490.3952      -3755.124          39.000  
G19  19628855.223   103150325.873        -256.853          47.000  
G 4  20092738.986   105588056.361        2614.628          46.000  
G12  22912842.251   120407776.6552       -965.992          41.000  
G18  22167136.351   116489088.1362      -4446.826          41.000  
G 9  20766971.133   109131161.408        2915.076          48.000  
> 2019 11 25  9 12  4.9930000  0 21                     
R17  17650766.479    94452790.030        1062.241          53.000  
R 1  17501131.114    93553544.436       -2350.736          50.000  
R 8  20609532.457   110363049.490       -4307.353          47.000  
R23  20804391.624   111289436.244       -5075.318          48.000  
G 6  21117945.412   110975544.7952       2642.496          42.000  
R 2  18365959.653    98004204.401        2017.362          53.000  
G17  19725826.432   103659915.780       -1382.660          49.000  
R18  21261905.220   113497391.846        3642.536          49.000  
R 9  21212639.402   113274246.074       -1234.262          44.000  
G22  19427704.548   102093273.546       -2443.724          47.000  
G 3  18171173.224    95490157.074       -1336.961          51.000  
G31  21286557.984   111861628.667        -883.064          46.000  
G 1  20168507.461   105986215.913       -3617.295          47.000  
G23  19216710.981   100984494.705        1318.962          49.000  
G11  21254022.912   111690647.4372      -4479.880          42.000  
G14  22382197.122   117619245.7952      -3755.991          38.000  
G19  19628904.097   103150583.450        -258.252          47.000  
G 4  20092241.445   105585442.244        2613.726          46.000  
G12  22913026.111   120408743.4282       -967.403          41.000  
G18  22167982.660   116493535.0642      -4447.026          41.000  
G 9  20766416.429   109128246.744        2914.361          48.000  
> 2019 11 25  9 12  5.9930000  0 21                     
R17  17650568.327    94451727.878        1061.796          53.000  
R 1  17501570.623    93555895.209       -2350.884          50.000  
R 8  20610337.252   110367356.644       -4307.018          47.000  
R23  20805341.025   111294511.373       -5075.231          49.000  
G 6  21117442.824   110972902.0352       2642.787          42.000  
R 2  18365581.886    98002187.004        2017.146          53.000  
G17  19726089.268   103661298.494       -1382.999          49.000  
R18  21261222.733   113493749.003        3642.879          49.000  
R 9  21212871.080   113275480.625       -1235.021          44.000  
G22  19428169.487   102095717.202       -2443.529          47.000  
G 3  18171427.373    95491493.879       -1336.945          51.000  
G31  21286726.143   111862511.777        -883.372          46.000  
G 1  20169195.780   105989833.135       -3617.230          47.000  
G23  19216459.812   100983175.589        1318.909          49.000  
G11  21254875.539   111695127.1362      -4480.036          42.000  
G14  22382911.399   117623001.3972      -3755.472          38.000  
G19  19628953.028   103150841.798        -258.788          47.000  
G 4  20091743.586   105582828.500        2613.662          46.000  
G12  22913210.346   120409710.8472       -967.592          41.000  
G18  22168828.564   116497982.1422      -4447.142          41.000  
G 9  20765861.700   109125332.390        2914.341          47.000  
> 2019 11 25  9 12  6.9930000  0 21                     
R17  17650369.932    94450666.018        1061.357          53.000  
R 1  17502009.850    93558245.972       -2351.182          50.000  
R 8  20611141.506   110371663.354       -4306.961          47.000  
R23  20806289.916   111299586.177       -5075.169          48.000  
G 6  21116939.834   110970258.4871       2642.841          43.000  
R 2  18365204.202    98000169.589        2016.954          53.000  
G17  19726352.508   103662681.319       -1383.334          49.000  
R18  21260540.451   113490105.856        3642.838          49.000  
R 9  21213102.701   113276715.466       -1235.565          44.000  
G22  19428634.531   102098160.647       -2443.848          47.000  
G 3  18171681.832    95492830.601       -1337.148          51.000  
G31  21286893.970   111863395.059        -883.661          46.000  
G 1  20169884.213   105993450.170       -3617.345          47.000  
G23  19216208.912   100981856.431        1318.783          49.000  
G11  21255728.222   111699605.9531      -4479.436          42.000  
G14  22383626.086   117626756.6942      -3755.573          38.000  
G19  19629002.224   103151100.362        -259.201          47.000  
G 4  20091246.674   105580214.608        2613.556          46.000  
G12  22913394.585   120410677.8891       -967.611          40.000  
G18  22169674.860   116502428.820       -4446.900          41.000  
G 9  20765306.997   109122417.771        2914.342          47.000  
> 2019 11 25  9 12  7.9930000  0 21                     
R17  17650172.090    94449605.247        1060.304          53.000  
R 1  17502449.316    93560597.507       -2352.019          50.000  
R 8  20611946.241   110375970.403       -4307.124          47.000  
R23  20807239.290   111304661.469       -5075.655          49.000  
G 6  21116436.989   110967615.899        2642.087          43.000  
R 2  18364826.209    97998152.934        2016.282          53.000  
G17  19726615.989   103664065.024       -1384.052          49.000  
R18  21259857.860   113486463.181        3642.491          49.000  
R 9  21213334.174   113277951.386       -1236.378          44.000  
G22  19429099.798   102100604.635       -2444.266          47.000  
G 3  18171936.379    95494167.984       -1337.643          51.000  
G31  21287062.169   111864279.270        -884.638          46.000  
G 1  20170572.812   105997067.808       -3618.043          47.000  
G23  19215958.044   100980537.998        1318.118          49.000  
G11  21256580.630   111704085.780       -4480.151          42.000  
G14  22384340.742   117630512.4282      -3755.835          39.000  
G19  19629051.512   103151359.943        -260.184          47.000  
G 4  20090749.203   105577601.315        2612.903          47.000  
G12  22913579.165   120411646.344        -968.800          40.000  
G18  22170521.392   116506875.851       -4447.144          41.000  
G 9  20764752.490   109119503.681        2913.840          47.000  
> 2019 11 25  9 12  8.9930000  0 21                     
R17  17649973.790    94448545.517        1059.119          53.000  
R 1  17502888.856    93562949.767       -2352.670          50.000  
R 8  20612750.251   110380277.751       -4307.592          46.000  
R23  20808188.456   111309737.183       -5076.118          49.000  
G 6  21115934.213   110964973.711        2641.838          42.000  
R 2  18364448.263    97996136.992        2015.530          53.000  
G17  19726879.457   103665449.598       -1385.128          49.000  
R18  21259175.146   113482820.933        3642.015          49.000  
R 9  21213565.472   113279188.376       -1237.576          45.000  
G22  19429564.615   102103049.128       -2444.855          47.000  
G 3  18172190.825    95495506.022       -1338.398          51.000  
G31  21287231.108   111865164.381        -885.765          46.000  
G 1  20171261.742   106000685.964       -3618.561          47.000  
G23  19215707.293   100979220.265        1317.274          49.000  
G11  21257433.274   111708565.986       -4480.438          41.000  
G14  22385055.377   117634268.5742      -3756.369          38.000  
G19  19629101.272   103151620.490        -261.190          47.000  
G 4  20090252.304   105574988.587        2612.533          47.000  
G12  22913763.718   120412615.677        -969.769          40.000  
G18  22171367.549   116511323.217       -4447.384          41.000  
G 9  20764197.839   109116590.077        2913.328          47.000  
> 2019 11 25  9 12  9.9930000  0 21                     
R17  17649775.673    94447486.217        1058.748          53.000  
R 1  17503328.907    93565302.179       -2352.833          50.000  
R 8  20613553.794   110384584.799       -4307.143          47.000  
R23  20809137.477   111314812.750       -5075.794          49.000  
G 6  21115431.089   110962331.367        2642.233          42.000  
R 2  18364070.606    97994121.171        2015.405          53.000  
G17  19727142.366   103666834.441       -1385.303          49.000  
R18  21258492.856   113479178.552        3642.045          49.000  
R 9  21213797.324   113280425.860       -1237.944          45.000  
G22  19430029.968   102105493.573       -2444.830          47.000  
G 3  18172445.436    95496844.118       -1338.403          51.000  
G31  21287399.616   111866049.805        -885.864          46.000  
G 1  20171949.865   106004304.096       -3618.548          47.000  
G23  19215456.490   100977902.649        1317.186          49.000  
G11  21258285.970   111713046.048       -4480.154          42.000  
G14  22385770.050   117638024.5982      -3756.288          38.000  
G19  19629151.061   103151881.432        -261.526          47.000  
G 4  20089755.051   105572375.882        2612.407          47.000  
G12  22913948.263   120413585.289        -970.176          40.000  
G18  22172213.583   116515770.383       -4447.501          41.000  
G 9  20763642.918   109113676.411        2913.347          47.000  
> 2019 11 25  9 12 10.9930000  0 21                     
R17  17649578.150    94446428.106        1057.631          53.000  
R 1  17503769.377    93567655.464       -2353.590          50.000  
R 8  20614357.651   110388892.337       -4307.740          47.000  
R23  20810086.560   111319888.887       -5076.246          49.000  
G 6  21114928.343   110959689.616        2641.409          42.000  
R 2  18363692.826    97992106.175        2014.661          53.000  
G17  19727405.856   103668220.286       -1386.247          49.000  
R18  21257810.334   113475536.772        3641.691          49.000  
R 9  21214029.041   113281664.582       -1239.222          45.000  
G22  19430495.178   102107938.673       -2445.317          47.000  
G 3  18172699.922    95498183.012       -1339.152          51.000  
G31  21287568.879   111866936.290        -886.864          47.000  
G 1  20172638.542   106007922.923       -3619.107          47.000  
G23  19215206.018   100976585.880        1316.490          49.000  
G11  21259138.592   111717526.697       -4480.995          42.000  
G14  22386484.798   117641781.1822      -3756.942          38.000  
G19  19629201.047   103152143.490        -262.505          47.000  
G 4  20089257.877   105569763.900        2611.719          47.000  
G12  22914133.100   120414555.926        -970.986          39.000  
G18  22173059.980   116520218.027       -4447.951          41.000  
G 9  20763088.363   109110763.371        2912.865          47.000  
> 2019 11 25  9 12 11.9930000  0 21                     
R17  17649380.945    94445371.039        1056.520          53.000  
R 1  17504210.414    93570009.457       -2354.494          50.000  
R 8  20615161.452   110393200.178       -4308.072          47.000  
R23  20811035.729   111324965.447       -5076.879          49.000  
G 6  21114425.480   110957048.226        2640.981          42.000  
R 2  18363315.068    97990091.808        2013.994          52.000  
G17  19727669.738   103669606.945       -1387.060          49.000  
R18  21257128.541   113471895.420        3641.119          49.000  
R 9  21214261.112   113282904.281       -1240.236          45.000  
G22  19430960.541   102110384.250       -2445.851          47.000  
G 3  18172954.786    95499522.514       -1339.895          51.000  
G31  21287737.911   111867823.644        -887.972          47.000  
G 1  20173327.503   106011542.256       -3619.708          47.000  
G23  19214955.581   100975269.771        1315.681          49.000  
G11  21259991.196   111722007.692       -4481.321          41.000  
G14  22387199.642   117645538.1362      -3757.297          38.000  
G19  19629250.990   103152406.482        -263.593          47.000  
G 4  20088761.043   105567152.472        2610.995          47.000  
G12  22914317.885   120415527.381        -971.784          39.000  
G18  22173906.084   116524665.983       -4448.550          41.000  
G 9  20762534.402   109107850.797        2912.240          47.000  
> 2019 11 25  9 12 12.9930000  0 21                     
R17  17649183.308    94444314.692        1056.377          53.000  
R 1  17504651.499    93572363.868       -2354.286          50.000  
R 8  20615965.222   110397508.030       -4307.627          47.000  
R23  20811984.772   111330042.127       -5076.485          48.000  
G 6  21113922.844   110954406.945        2641.490          42.000  
R 2  18362937.367    97988077.801        2014.197          52.000  
G17  19727933.664   103670994.158       -1387.146          49.000  
R18  21256446.259   113468254.205        3641.321          49.000  
R 9  21214493.357   113284144.761       -1240.523          45.000  
G22  19431425.899   102112830.024       -2445.592          47.000  
G 3  18173209.760    95500862.334       -1339.542          51.000  
G31  21287906.807   111868711.572        -887.892          47.000  
G 1  20174016.141   106015161.802       -3619.343          47.000  
G23  19214705.009   100973954.031        1315.913          49.000  
G11  21260843.779   111726488.791       -4481.110          41.000  
G14  22387914.333   117649294.7031      -3756.976          38.000  
G19  19629301.186   103152670.116        -263.558          47.000  
G 4  20088264.170   105564541.283        2611.450          47.000  
G12  22914502.761   120416499.409        -972.011          39.000  
G18  22174752.834   116529113.933       -4447.869          41.000  
G 9  20761980.117   109104938.399        2912.736          47.000  
> 2019 11 25  9 12 13.9930000  0 21                     
R17  17648986.003    94443258.700        1055.206          53.000  
R 1  17505092.736    93574718.364       -2355.220          50.000  
R 8  20616769.141   110401815.556       -4308.172          47.000  
R23  20812933.288   111335118.566       -5076.979          48.000  
G 6  21113420.178   110951765.451        2640.990          43.000  
R 2  18362559.831    97986063.829        2013.313          52.000  
G17  19728197.681   103672381.565       -1388.274          49.000  
R18  21255763.956   113464612.774        3640.798          49.000  
R 9  21214725.314   113285385.615       -1241.675          44.000  
G22  19431891.261   102115275.660       -2446.278          47.000  
G 3  18173464.839    95502202.154       -1340.532          51.000  
G31  21288075.743   111869599.760        -889.044          47.000  
G 1  20174704.779   106018781.255       -3619.963          47.000  
G23  19214454.481   100972638.347        1314.851          49.000  
G11  21261696.174   111730969.668       -4481.291          41.000  
G14  22388628.911   117653051.518       -3757.218          38.000  
G19  19629351.303   103152934.094        -264.956          47.000  
G 4  20087767.367   105561930.050        2610.432          47.000  
G12  22914687.956   120417471.647        -972.984          39.000  
G18  22175599.484   116533561.596       -4448.242          41.000  
G 9  20761426.055   109102025.847        2911.973          47.000  
> 2019 11 25  9 12 14.9930000  0 21                     
R17  17648788.327    94442203.777        1054.263          53.000  
R 1  17505534.179    93577073.640       -2355.841          51.000  
R 8  20617573.460   110406123.425       -4308.128          47.000  
R23  20813881.471   111340195.464       -5077.338          48.000  
G 6  21112917.507   110949124.411        2640.877          43.000  
R 2  18362182.662    97984050.631        2012.687          52.000  
G17  19728461.834   103673769.868       -1388.912          49.000  
R18  21255081.844   113460971.849        3640.500          49.000  
R 9  21214957.301   113286627.641       -1242.654          44.000  
G22  19432356.453   102117721.859       -2446.720          47.000  
G 3  18173720.205    95503542.656       -1340.914          51.000  
G31  21288244.674   111870488.898        -889.841          46.000  
G 1  20175394.001   106022401.314       -3620.722          47.000  
G23  19214204.323   100971323.380        1314.573          49.000  
G11  21262548.504   111735451.014       -4481.398          41.000  
G14  22389343.650   117656808.817       -3757.720          38.000  
G19  19629401.664   103153199.066        -265.590          46.000  
G 4  20087270.498   105559319.417        2610.224          47.000  
G12  22914873.138   120418444.805        -973.635          39.000  
G18  22176446.273   116538009.630       -4448.269          41.000  
G 9  20760872.185   109099113.833        2911.655          48.000  
> 2019 11 25  9 12 15.9930000  0 21                     
R17  17648590.703    94441149.922        1053.627          52.000  
R 1  17505975.468    93579429.716       -2356.188          51.000  
R 8  20618376.921   110410431.705       -4308.208          47.000  
R23  20814830.410   111345272.837       -5077.267          48.000  
G 6  21112415.285   110946483.817        2640.791          43.000  
R 2  18361805.703    97982038.157        2012.395          53.000  
G17  19728726.057   103675159.027       -1389.136          49.000  
R18  21254399.785   113457331.385        3640.500          49.000  
R 9  21215190.877   113287870.788       -1243.325          45.000  
G22  19432821.999   102120168.636       -2446.790          47.000  
G 3  18173975.423    95504883.849       -1341.224          51.000  
G31  21288413.801   111871379.003        -890.248          46.000  
G 1  20176082.460   106026021.940       -3620.468          47.000  
G23  19213954.048   100970009.155        1314.180          49.000  
G11  21263400.986   111739932.816       -4481.772          41.000  
G14  22390058.742   117660566.621       -3757.365          38.000  
G19  19629452.235   103153465.034        -266.103          46.000  
G 4  20086773.533   105556709.385        2610.008          47.000  
G12  22915058.141   120419418.845        -974.149          39.000  
G18  22177293.119   116542458.065       -4448.157          41.000  
G 9  20760317.945   109096202.315        2911.592          47.000  
> 2019 11 25  9 12 16.9930000  0 21                     
R17  17648393.673    94440096.639        1052.656          47.000  
R 1  17506416.161    93581786.103       -2357.202          45.000  
R 8  20619181.472   110414739.937       -4309.133          42.000  
R23  20815779.567   111350350.150       -5077.703          43.000  
G 6  21111912.728   110943843.098        2640.539          42.000  
R 2  18361428.616    97980025.820        2012.211          47.000  
G17  19728990.310   103676548.479       -1389.611          48.000  
R18  21253718.119   113453690.894        3639.739          43.000  
R 9  21215424.723   113289114.540       -1244.773          41.000  
G22  19433287.832   102122615.529       -2447.675          47.000  
G 3  18174230.685    95506225.250       -1342.142          50.000  
G31  21288583.509   111872269.670        -891.932          47.000  
G 1  20176771.159   106029642.706       -3621.508          46.000  
G23  19213704.060   100968695.112        1313.710          49.000  
G11  21264253.813   111744414.553       -4482.247          41.000  
G14  22390774.070   117664324.504       -3758.804          38.000  
G19  19629502.792   103153731.427        -266.815          46.000  
G 4  20086277.087   105554099.379        2609.877          47.000  
G12  22915243.453   120420393.330        -975.262          36.000  
G18  22178139.799   116546906.393       -4448.869          41.000  
G 9  20759763.826   109093290.738        2911.693          47.000  
> 2019 11 25  9 12 17.9930000  0 21                     
R17  17648197.602    94439044.226        1052.103          49.000  
R 1  17506857.420    93584144.525       -2359.417          46.000  
R 8  20619986.764   110419050.911       -4311.401          44.000  
R23  20816728.806   111355428.167       -5078.011          45.000  
G 6  21111410.314   110941202.290        2640.988          41.000  
R 2  18361051.421    97978013.132        2012.615          50.000  
G17  19729254.794   103677937.803       -1389.470          49.000  
R18  21253035.549   113450051.026        3639.610          47.000  
R 9  21215658.211   113290361.136       -1248.101          41.000  
G22  19433754.137   102125064.651       -2449.861          47.000  
G 3  18174486.165    95507568.265       -1343.342          50.000  
G31  21288754.521   111873163.640        -895.023          47.000  
G 1  20177460.426   106033265.219       -3622.847          47.000  
G23  19213454.195   100967381.752        1313.027          49.000  
G11  21265106.920   111748897.100       -4482.632          41.000  
G14  22391490.367   117668085.165       -3761.578          38.000  
G19  19629553.001   103153998.059        -267.373          45.000  
G 4  20085780.070   105551489.425        2609.893          45.000  
G12  22915428.853   120421369.117        -976.260          37.000  
G18  22178986.270   116551356.332       -4450.220          40.000  
G 9  20759209.729   109090378.783        2911.921          46.000  
